# CARAS,CIUDAD,MUNICIPIO,CLAVE,VISTA,DIRECCION,TIPO,BASE,ALTURA,LONGITUD ,LATITUD,TARIFA PUBLICO, IMPRESION, INSTALACION, PROVEEDOR, TELÉFONO PROVEEDOR ,
,DURANGO,DURANGO,15507,SUR,LÁZARO CÁRDENAS LIBERTAD 508,AZOTEA,10.5,7.32,-104.654053,24.033819,"$16,537.50",,,RENTABLE,,
,DURANGO,DURANGO,15510,ORIENTE,DE LA JUVENTUD 707,UNIPOLAR,12.9,7.32,-104.632128,24.03265,"$16,537.50",,,RENTABLE, ,
,DURANGO,DURANGO,15511,PONIENTE,DE LA JUVENTUD 707,UNIPOLAR,12.9,7.32,-104.632128,24.03265,"$16,537.50",,,RENTABLE, ,
,COLIMA,COLIMA,14001,SUR,CARLOS DE LA MADRID BEJAR  600 (596),UNIPOLAR,12.9,7.32,-103.7230455,19.2262279,"$19,018.13",,,RENTABLE, ,
,COLIMA,COLIMA,14002,NORTE,CARLOS DE LA MADRID BEJAR  600 (596),UNIPOLAR,12.9,7.32,-103.7230455,19.2262279,"$19,018.13",,,RENTABLE,,
,EDO. DE MÉXICO,ATIZAPAN DE ZARAGOZA,2038,,BOULEVARD CUAUTITLAN IZCALLI 19 DE MARZO  ,AZOTEA,12.9,7.32,-99.23223057,19.58721282,"$28,750.00",,,RENTABLE,,
,EDO. DE MÉXICO,ATIZAPAN DE ZARAGOZA,2560,PONIENTE,ADOLFO LOPEZ MATEOS  48,PISO,12.9,7.32,-99.25040703,19.56249107,"$28,750.00",,,RENTABLE,,
,EDO. DE MÉXICO,CUAUTITLAN ,2470,NORTE,PERIFERICO AUTOPISTA MEXICO QUERETARO FTE. A PERINORTE UNIPOLAR 1 ,UNIPOLAR,12.9,7.32,-99.18881742,19.60455122,"$43,125.00",,,RENTABLE,,
,EDO. DE MÉXICO,CUAUTITLAN ,2473,SUR,PERIFERICO AUTOPISTA MEXICO QUERETARO FTE. A PERINORTE 2o. UNIPOLAR ,UNIPOLAR,12.9,7.32,-99.18904863,19.60589515,"$40,250.00",,,RENTABLE,,
,EDO. DE MÉXICO,CUAUTITLAN IZCALLI,2007,NORTE,PERIFERICO NORTE A. M. QRO. PUENTE DE LA FORD  ,UNIPOLAR,12.9,7.32,-99.1962183,19.64430081,"$43,125.00",,,RENTABLE,,
,EDO. DE MÉXICO,CUAUTITLAN IZCALLI,2008,SUR,PERIFERICO NORTE A. M. QRO. PUENTE DE LA FORD  ,UNIPOLAR,12.9,7.32,-99.1962183,19.64430081,"$43,125.00",,,RENTABLE,,
,EDO. DE MÉXICO,CUAUTITLAN IZCALLI,2009,NORTE,PERIFERICO NORTE A. M. QRO. ADELANTE PUENTE TEPALCAPA  ,UNIPOLAR,12.9,7.32,-99.19233568,19.6215389,"$43,125.00",,,RENTABLE,,
,EDO. DE MÉXICO,CUAUTITLAN IZCALLI,2010,SUR,PERIFERICO NORTE A. M. QRO. ADELANTE PUENTE TEPALCAPA  ,UNIPOLAR,12.9,7.32,-99.19233568,19.6215389,"$43,125.00",,,RENTABLE,,
,EDO. DE MÉXICO,CUAUTITLAN IZCALLI,2013,NORTE,PERIFERICO NORTE A. M. QRO KM 29.4 ,UNIPOLAR,12.9,7.32,-99.19647359,19.59731745,"$35,937.50",,,RENTABLE,,
,EDO. DE MÉXICO,CUAUTITLAN IZCALLI,2014,SUR,PERIFERICO NORTE A. M. QRO. LA QUEBRADA KM 29.4 ,UNIPOLAR,12.9,7.32,-99.19647359,19.59731745,"$35,937.50",,,RENTABLE,,
,EDO. DE MÉXICO,CUAUTITLAN IZCALLI,2023,NORTE,PERIFERICO NORTE A. M. QRO. ENTRADA STA. MARIA GUADALUPE KM 28.5 ,UNIPOLAR,12.9,7.32,-99.20132685,19.59098131,"$35,937.50",,,RENTABLE,,
,EDO. DE MÉXICO,CUAUTITLAN IZCALLI,2024,SUR,PERIFERICO NORTE A. M. QRO. ENTRADA STA. MARIA GUADALUPE KM 28.5 ,UNIPOLAR,12.9,7.32,-99.20132685,19.59098131,"$40,250.00",,,RENTABLE,,
,EDO. DE MÉXICO,CUAUTITLAN IZCALLI,2117,NORTE,PERIFERICO NORTE A. M. QRO. KM 29.5  ENTRADA ´PUNTA NORTE,UNIPOLAR,12.9,14.64,-99.20212165,19.59525688,"$80,500.00",,,RENTABLE,,
,EDO. DE MÉXICO,CUAUTITLAN IZCALLI,2118,SUR,PERIFERICO NORTE A. M. QRO. KM 29.5  ENTRADA ´PUNTA NORTE,UNIPOLAR,12.9,14.64,-99.20212165,19.59525688,"$92,000.00",,,RENTABLE,,
,EDO. DE MÉXICO,CUAUTITLAN IZCALLI,2119,SUR,PERIFERICO NORTE A. M. QRO. KM 33.5 ,UNIPOLAR,12.9,7.32,-99.19320938,19.63108992,"$43,125.00",,,RENTABLE,,
,EDO. DE MÉXICO,CUAUTITLAN IZCALLI,2120,NORTE,PERIFERICO NORTE A. M. QRO. KM 33.5 ,UNIPOLAR,12.9,7.32,-99.19320938,19.63108992,"$40,250.00",,,RENTABLE,,
,EDO. DE MÉXICO,CUAUTITLAN IZCALLI,2478,SUR,PERIFERICO AUTOPISTA MEXICO QUERETARO ENTRADA FRAC. LA QUEBRADA ,UNIPOLAR,12.9,7.32,-99.19435025,19.59759616,"$35,937.50",,,RENTABLE,,
,EDO. DE MÉXICO,ECATEPEC,1425,NORTE,AV. CENTRAL TIENDA CHEDRAUI  ,UNIPOLAR,12.9,7.32,-99.01452602,19.6026833,"$35,937.50",,,RENTABLE,,
,EDO. DE MÉXICO,ECATEPEC,1426,SUR,AV. CENTRAL TIENDA CHEDRAUI  ,UNIPOLAR,12.9,7.32,-99.01452602,19.6026833,"$35,937.50",,,RENTABLE,,
,EDO. DE MÉXICO,ECATEPEC,1530,NORTE,AVENIDA CENTRAL FRENTE A CENTRO COMERCIAL LAS AMERICAS (ANTES SOSA LAS VIAS) ,UNIPOLAR,12.9,7.32,-99.02665265,19.58474933,"$92,000.00",,,RENTABLE,,
,EDO. DE MÉXICO,ECATEPEC,1531,SUR,AVENIDA CENTRAL FRENTE A CENTRO COMERCIAL LAS AMERICAS (ANTES SOSA LAS VIAS) ,UNIPOLAR,12.9,7.32,-99.02665265,19.58474933,"$92,000.00",,,RENTABLE,,
,EDO. DE MÉXICO,ECATEPEC,19138,NORTE,CARRETERA LECHERIA TEXCOCO KM. 45 BIS MZ 94 ,AZOTEA,12.9,7.32,-99.05093934,19.61318124,"$28,750.00",,,RENTABLE,,
,EDO. DE MÉXICO,ECATEPEC,19767,NORTE,AUTOPISTA MEXICO PACHUCA KM 16 SOCRATES 7,UNIPOLAR,12.9,11,-99.07500692,19.53830069,"$46,000.00",,,RENTABLE,,
,EDO. DE MÉXICO,ECATEPEC,19768,SUR,AUTOPISTA MEXICO PACHUCA KM 16 SOCRATES 7,UNIPOLAR,12.9,11,-99.07500692,19.53830069,"$46,000.00",,,RENTABLE,,
,EDO. DE MÉXICO,ECATEPEC,2252,ORIENTE,VIA LOPEZ PORTILLO LIMITE CON TULTITLAN  ,UNIPOLAR,12.9,7.32,-99.13186193,19.62973248,"$35,937.50",,,RENTABLE,,
,EDO. DE MÉXICO,ECATEPEC,2576,ORIENTE,VIA LOPEZ PORTILLO KM.  30,AZOTEA,12.9,7.32,-99.07103133,19.62075025,"$35,937.50",,,RENTABLE,,
,EDO. DE MÉXICO,HUIXQUILUCAN,2525,NORTE,TECAMACHALCO LT. 1 MZ. 11 ,AZOTEA,12.9,7.32,-99.27754344,19.38841952,"$43,125.00",,,RENTABLE,,
,EDO. DE MÉXICO,IXTAPALUCA,19238,NORTE,AUTOPISTA MEXICO PUEBLA REVOLUCION MZ. 21 LT. 7 ,UNIPOLAR,12.9,7.32,-98.91095224,19.29067271,"$43,125.00",,,RENTABLE,,
,EDO. DE MÉXICO,IXTAPALUCA,19239,SUR,AUTOPISTA MEXICO PUEBLA REVOLUCION MZ. 21 LT. 7 ,UNIPOLAR,12.9,7.32,-98.91095224,19.29067271,"$43,125.00",,,RENTABLE,,
,EDO. DE MÉXICO,IZCALLI,2468,NORTE,PERIFERICO AUTOPISTA MEXICO QUERETARO KM. 36.5,UNIPOLAR,12.9,7.32,-99.196353,19.649649,"$43,125.00",,,RENTABLE,,
,EDO. DE MÉXICO,IZCALLI  ,2469,SUR,PERIFERICO AUTOPISTA MEXICO QUERETARO KM. 36.5,UNIPOLAR,12.9,7.32,-99.196353,19.649649,"$43,125.00",,,RENTABLE,,
,EDO. DE MÉXICO,NAUCALPAN,19301,NORTE,PERIFERICO BLVD. MANUEL AVILA CAMACHO #605,UNIPOLAR,12.9,14.64,-99.22031176,19.45348039,"$402,500.00",,,RENTABLE,,
,EDO. DE MÉXICO,NAUCALPAN,19302,SUR,PERIFERICO BLVD. MANUEL AVILA CAMACHO #605,UNIPOLAR,12.9,14.64,-99.22031176,19.45348039,"$402,500.00",,,RENTABLE,,
,EDO. DE MÉXICO,NAUCALPAN,01069-E01,PONIENTE,AV. LOMAS VERDES MISION DE SAN JAVIER 2,UNIPOLAR,12.9,7.32,-99.24997367,19.49697385,"$100,625.00",,,RENTABLE,,
,EDO. DE MÉXICO,NAUCALPAN,05176-E01,NORTE,PERIFERICO BLVD. MANUEL AVILA CAMACHO #60/70 (ANTES JOSELILLO),UNIPOLAR,9.5,10.8,-99.22037691,19.45457236,"$345,000.00",,,RENTABLE,,
,EDO. DE MÉXICO,NAUCALPAN,05176-E02,SUR,PERIFERICO BLVD. MANUEL AVILA CAMACHO #60/70 (ANTES JOSELILLO),UNIPOLAR,9.5,10.8,-99.22037691,19.45457236,"$345,000.00",,,RENTABLE,,
,EDO. DE MÉXICO,NAUCALPAN,05209-E01,SUR,PERIFERICO BLVD. MANUEL AVILA CAMACHO ENTRONQUE RIO SAN JOAQUIN,UNIPOLAR,12.9,7.32,-99.22047779,19.45648,"$115,000.00",,,RENTABLE,,
,EDO. DE MÉXICO,NAUCALPAN,05209-E02,NORTE,PERIFERICO BLVD. MANUEL AVILA CAMACHO ENTRONQUE RIO SAN JOAQUIN,UNIPOLAR,12.9,7.32,-99.22047779,19.45648,"$115,000.00",,,RENTABLE,,
,EDO. DE MÉXICO,NAUCALPAN,11P2195,NORTE,PERIFERICO BLVD. MANUEL AVILA CAMACHO 245-1,AZOTEA,12.9,7.32,-99.22192564,19.46110341,"$92,000.00",,,RENTABLE,,
,EDO. DE MÉXICO,NAUCALPAN,20051,PONIENTE,CIRCUITO MEDICOS 15,AZOTEA,12.9,7.32,-99.23384012,19.50606097,"$57,500.00",,,RENTABLE,,
,EDO. DE MÉXICO,NAUCALPAN,20130,SUR,GUSTAVO BAZ  177,AZOTEA,12.9,7.32,-99.228116,19.49116051,"$50,312.50",,,RENTABLE,,
,EDO. DE MÉXICO,NAUCALPAN,2073,NORTE,PERIFERICO BLVD MANUEL AVILA CAMACHO ESQ LOMAS VERDES  ,UNIPOLAR,12.9,7.32,-99.23517696,19.48659513,"$103,500.00",,,RENTABLE,,
,EDO. DE MÉXICO,NAUCALPAN,2074,SUR,PERIFERICO BLVD MANUEL AVILA CAMACHO ESQ LOMAS VERDES  ,UNIPOLAR,12.9,7.32,-99.23517696,19.48659513,"$126,500.00",,,RENTABLE,,
,EDO. DE MÉXICO,NAUCALPAN,2080,NORTE,PERIFERICO BLVD. MANUEL AVILA CAMACHO  615,AZOTEA,20,10.8,-99.22986139,19.47642574,"$92,000.00",,,RENTABLE,,
,EDO. DE MÉXICO,NAUCALPAN,2081,SUR,PERIFERICO BLVD. MANUEL AVILA CAMACHO  615,AZOTEA,20,10.8,-99.22986139,19.47642574,"$138,000.00",,,RENTABLE,,
,EDO. DE MÉXICO,NAUCALPAN,2082,NORTE,PERIFERICO BLVD. MANUEL AVILA CAMACHO PUENTE DEL IMSS,UNIPOLAR,12.9,7.32,-99.22957143,19.47470883,"$69,000.00",,,RENTABLE,,
,EDO. DE MÉXICO,NAUCALPAN,2083,SUR,PERIFERICO BLVD. MANUEL AVILA CAMACHO PUENTE DEL IMSS  ,UNIPOLAR,12.9,7.32,-99.22957143,19.47470883,"$92,000.00",,,RENTABLE,,
,EDO. DE MÉXICO,NAUCALPAN,2099,SUR,PERIFERICO BLVD. MANUEL AVILA CAMACHO FERROCARRIL ACAMBARO 21,BIPOLAR,25,9,-99.22896462,19.4731278,"$195,500.00",,,RENTABLE,,
,EDO. DE MÉXICO,NAUCALPAN,2100,NORTE,PERIFERICO BLVD. MANUEL AVILA CAMACHO FERROCARRIL ACAMBARO 21,BIPOLAR,25,9,-99.22896462,19.4731278,"$143,750.00",,,RENTABLE,,
,EDO. DE MÉXICO,NAUCALPAN,2103,SUR,PERIFERICO MANUEL A. CAMACHO ECHEGARAY  HDA. TIERRA BLANCA 1,UNIPOLAR,12.9,11,-99.23706791,19.48927192,"$100,625.00",,,RENTABLE,,
,EDO. DE MÉXICO,NAUCALPAN,2104,NORTE,PERIFERICO MANUEL A. CAMACHO ECHEGARAY  HDA. TIERRA BLANCA 1,UNIPOLAR,12.9,11,-99.23706791,19.48927192,"$115,000.00",,,RENTABLE,,
,EDO. DE MÉXICO,NAUCALPAN,2121,SUR,PERIFERICO BLVD. MANUEL AVILA CAMACHO PISO 2 510,UNIPOLAR,12.9,7.32,-99.22732995,19.47021872,"$57,500.00",,,RENTABLE,,
,EDO. DE MÉXICO,NAUCALPAN,2143,SUR,PERIFERICO BLVD. MANUEL AVILA CAMACHO 332,UNIPOLAR,12.9,7.32,-99.22379795,19.46350951,"$100,625.00",,,RENTABLE,,
,EDO. DE MÉXICO,NAUCALPAN,2144,NORTE,PERIFERICO BLVD. MANUEL AVILA CAMACHO 332,UNIPOLAR,12.9,7.32,-99.22379795,19.46350951,"$86,250.00",,,RENTABLE,,
,EDO. DE MÉXICO,NAUCALPAN,2208,NORTE,PERIFERICO BLVD. MANUEL AVILA CAMACHO  995,AZOTEA,12.9,7.32,-99.23664124,19.49045059,"$57,500.00",,,RENTABLE,,
,EDO. DE MÉXICO,NAUCALPAN,2209,SUR,PERIFERICO BLVD. MANUEL AVILA CAMACHO  995,AZOTEA,12.9,7.32,-99.23664124,19.49045059,"$57,500.00",,,RENTABLE,,
,EDO. DE MÉXICO,NAUCALPAN,2214,SUR,PERIFERICO BLVD. MANUEL AVILA CAMACHO  930,UNIPOLAR,12.9,14.64,-99.23675253,19.48833043,"$97,750.00",,,RENTABLE,,
,EDO. DE MÉXICO,NAUCALPAN,2239,PONIENTE,CIRCUITO PUERICULTORES CIRCUITO MUSICOS 1,AZOTEA,12.9,7.32,-99.22363817,19.50787363,"$57,500.00",,,RENTABLE,,
,EDO. DE MÉXICO,NAUCALPAN,2270,SUR,PERIFERICO AVILA CAMACHO  HACIENDA GAVIA 1,AUTOSOPORTADO,12.9,7.32,-99.23615268,19.48850911,"$43,125.00",,,RENTABLE,,
,EDO. DE MÉXICO,NAUCALPAN,2279,NORTE,PERIFERICO BLVD. MANUEL AVILA CAMACHO 220,UNIPOLAR,12.9,7.32,-99.22242051,19.46075926,"$57,500.00",,,RENTABLE,,
,EDO. DE MÉXICO,NAUCALPAN,2283,PONIENTE,PAFNUNCIO PADILLA # 13,AZOTEA,12.9,7.32,-99.23173333,19.5126516,"$57,500.00",,,RENTABLE,,
,EDO. DE MÉXICO,NAUCALPAN,2284,SUR,PERIFERICO BLVD. MANUEL AVILA CAMACHO 220,UNIPOLAR,12.9,7.32,-99.22242051,19.46075926,"$57,500.00",,,RENTABLE,,
,EDO. DE MÉXICO,NAUCALPAN,2288,NORTE,PERIFERICO BLVD. M. A. CAMACHO  CIRCUITO GEOGRAFOS (AUTOS CONTINENTAL) 26,UNIPOLAR,12.9,14.4,-99.23640814,19.50429606,"$287,500.00",,,RENTABLE,,
,EDO. DE MÉXICO,NAUCALPAN,2289,SUR,PERIFERICO BLVD. M. A. CAMACHO  CIRCUITO GEOGRAFOS (AUTOS CONTINENTAL) 26,UNIPOLAR,12.9,14.4,-99.23640814,19.50429606,"$287,500.00",,,RENTABLE,,
,EDO. DE MÉXICO,NAUCALPAN,2290,NORTE,PERIFERICO BLVD MANUEL AVILA CAMACHO CIRCUITO NOVELISTAS (LA TABLITA) 1 Y 2 ,UNIPOLAR,12.9,11,-99.2370686,19.50577392,"$172,500.00",,,RENTABLE,,
,EDO. DE MÉXICO,NAUCALPAN,2291,SUR,PERIFERICO BLVD MANUEL AVILA CAMACHO CIRCUITO NOVELISTAS (LA TABLITA) 1 Y 2 ,UNIPOLAR,12.9,16.4,-99.2370686,19.50577392,"$264,500.00",,,RENTABLE,,
,EDO. DE MÉXICO,NAUCALPAN,2300,NORTE,PERIFERICO BLVD. MANUEL AVILA CAMACHO 705,UNIPOLAR,12.9,7.32,-99.23259858,19.48163126,"$80,500.00",,,RENTABLE,,
,EDO. DE MÉXICO,NAUCALPAN,2302,NORTE,PERIFERICO BLVD. MANUEL AVILA CAMACHO 680,UNIPOLAR,12.9,14.64,-99.23143692,19.47771596,"$115,000.00",,,RENTABLE,,
,EDO. DE MÉXICO,NAUCALPAN,2303,SUR,PERIFERICO BLVD. MANUEL AVILA CAMACHO 680,UNIPOLAR,12.9,14.64,-99.23143692,19.47771596,"$129,375.00",,,RENTABLE,,
,EDO. DE MÉXICO,NAUCALPAN,2304,NORTE,PERIFERICO BLVD. MANUEL AVILA CAMACHO SAN FRANCISCO CUAUTLALPAN 17-A,TRIPOLAR,39.5,10.98,-99.22095501,19.45939575,"$230,000.00",,,RENTABLE,,
,EDO. DE MÉXICO,NAUCALPAN,2305,SUR,PERIFERICO BLVD. MANUEL AVILA CAMACHO SAN FRANCISCO CUAUTLALPAN 17-A,TRIPOLAR,39.5,10.98,-99.22095501,19.45939575,"$448,500.00",,,RENTABLE,,
,EDO. DE MÉXICO,NAUCALPAN,2336,NORTE,PERIFERICO  CIRCUITO ARQUITECTOS 2,UNIPOLAR,12.9,7.32,-99.23659909,19.51099138,"$115,000.00",,,RENTABLE,,
,EDO. DE MÉXICO,NAUCALPAN,2340,SUR,PERIFERICO BLVD. MANUEL AVILA CAMACHO 234,UNIPOLAR,12.9,7.32,-99.22261531,19.46116984,"$80,500.00",,,RENTABLE,,
,EDO. DE MÉXICO,NAUCALPAN,2343,NORTE,PERIFERICO BLVD. MANUEL AVILA CAMACHO  VALLE DE MORELOS 18,UNIPOLAR,12.9,16,-99.23278595,19.4803934,"$345,000.00",,,RENTABLE,,
,EDO. DE MÉXICO,NAUCALPAN,2344,SUR,PERIFERICO BLVD. MANUEL AVILA CAMACHO  VALLE DE MORELOS 18,UNIPOLAR,12.9,16,-99.23278595,19.4803934,"$158,125.00",,,RENTABLE,,
,EDO. DE MÉXICO,NAUCALPAN,2349,NORTE,PERIFERICO BLVD. MANUEL AVILA CAMACHO PASEO DE ECHEGARAY 3,UNIPOLAR,12.9,7.32,-99.23405319,19.4847702,"$57,500.00",,,RENTABLE,,
,EDO. DE MÉXICO,NAUCALPAN,2350,SUR,PERIFERICO BLVD. MANUEL AVILA CAMACHO PASEO DE ECHEGARAY 3,UNIPOLAR,12.9,7.32,-99.23405319,19.4847702,"$86,250.00",,,RENTABLE,,
,EDO. DE MÉXICO,NAUCALPAN,2351,NORTE,PERIFERICO BLVD. MANUEL AVILA CAMACHO 6,UNIPOLAR,12.9,7.32,-99.23434737,19.48486134,"$57,500.00",,,RENTABLE,,
,EDO. DE MÉXICO,NAUCALPAN,2352,SUR,PERIFERICO BLVD. MANUEL AVILA CAMACHO 6,UNIPOLAR,12.9,7.32,-99.23434737,19.48486134,"$57,500.00",,,RENTABLE,,
,EDO. DE MÉXICO,NAUCALPAN,2408,PONIENTE,RIO SAN JOAQUIN  63,UNIPOLAR,12.9,7.32,-99.21873582,19.45607917,"$287,500.00",,,RENTABLE,,
,EDO. DE MÉXICO,NAUCALPAN,2409,ORIENTE,RIO SAN JOAQUIN  63,UNIPOLAR,12.9,7.32,-99.21873582,19.45607917,"$287,500.00",,,RENTABLE,,
,EDO. DE MÉXICO,NAUCALPAN,2454,NORTE,PERIFERICO CIRCUITO ARQUITECTOS 1,AZOTEA,12.9,7.32,-99.23645946,19.51128951,"$103,500.00",,,RENTABLE,,
,EDO. DE MÉXICO,NAUCALPAN,2457,SUR,PERIFERICO BLVD. MANUEL AVILA CAMACHO KM. 17 + 628 LADO DERECHO PLAZA SATELITE CTO. CENTRO COMERCIAL No. 2251 ,UNIPOLAR,12.9,7.32,-99.23632562,19.5086566,"$172,500.00",,,RENTABLE,,
,EDO. DE MÉXICO,NAUCALPAN,2458,NORTE,PERIFERICO NORTE ESQ. CIRCUITO ARQUITECTOS (BANCOMER)  ,UNIPOLAR,12.9,7.32,-99.23708689,19.50843915,"$184,000.00",,,RENTABLE,,
,EDO. DE MÉXICO,NAUCALPAN,2459,SUR,PERIFERICO NORTE ESQ. CIRCUITO ARQUITECTOS (BANCOMER)  ,UNIPOLAR,12.9,7.32,-99.23708689,19.50843915,"$184,000.00",,,RENTABLE,,
,EDO. DE MÉXICO,NAUCALPAN,2461,NORTE,PERIFERICO BLVD. MANUEL AVILA CAMACHO 913,UNIPOLAR,12.9,7.32,-99.2355854,19.48733963,"$57,500.00",,,RENTABLE,,
,EDO. DE MÉXICO,NAUCALPAN,2462,SUR,PERIFERICO BLVD. MANUEL AVILA CAMACHO 913,UNIPOLAR,12.9,7.32,-99.2355854,19.48733963,"$57,500.00",,,RENTABLE,,
,EDO. DE MÉXICO,NAUCALPAN,2482,SUR,PERIFERICO BLVD. MANUEL AVILA CAMACHO 830,UNIPOLAR,12.9,7.32,-99.23496559,19.48499431,"$57,500.00",,,RENTABLE,,
,EDO. DE MÉXICO,NAUCALPAN,2483,NORTE,PERIFERICO ESQ. BLVD. MANUEL AVILA CAMACHO  (CERRADA ALCE BLANCO) 577 585,BIPOLAR,25.5,14.64,-99.22770809,19.47214218,"$86,250.00",,,RENTABLE,,
,EDO. DE MÉXICO,NAUCALPAN,2484,SUR,PERIFERICO ESQ. BLVD. MANUEL AVILA CAMACHO  (CERRADA ALCE BLANCO) 577 585,BIPOLAR,25.5,14.64,-99.22770809,19.47214218,"$230,000.00",,,RENTABLE,,
,EDO. DE MÉXICO,NAUCALPAN,2487,NORTE,PERIFERICO BLVD. MANUEL AVILA CAMACHO 675,UNIPOLAR,12.9,7.32,-99.23085556,19.47815411,"$57,500.00",,,RENTABLE,,
,EDO. DE MÉXICO,NAUCALPAN,2488,SUR,PERIFERICO BLVD. MANUEL AVILA CAMACHO 675,UNIPOLAR,12.9,7.32,-99.23085556,19.47815411,"$92,000.00",,,RENTABLE,,
,EDO. DE MÉXICO,NAUCALPAN,2493,NORTE,PERIFERICO BLVD. MANUEL AVILA CAMACHO 1895,BIPOLAR,25,14.4,-99.2363845,19.50299907,"$258,750.00",,,RENTABLE,,
,EDO. DE MÉXICO,NAUCALPAN,2494,NORTE,PERIFERICO BLVD. MANUEL AVILA CAMACHO  LOCAL 1 41,UNIPOLAR,12.9,14.64,-99.22380205,19.46458781,"$143,750.00",,,RENTABLE,,
,EDO. DE MÉXICO,NAUCALPAN,2495,SUR,PERIFERICO BLVD. MANUEL AVILA CAMACHO  LOCAL 1 41,UNIPOLAR,12.9,14.64,-99.22380205,19.46458781,"$172,500.00",,,RENTABLE,,
,EDO. DE MÉXICO,NAUCALPAN,2498,NORTE,PERIFERICO BLVD. MANUEL AVILA CAMACHO 1645,UNIPOLAR,12.9,14.64,-99.23632901,19.49785314,"$143,750.00",,,RENTABLE,,
,EDO. DE MÉXICO,NAUCALPAN,2499,SUR,PERIFERICO BLVD. MANUEL AVILA CAMACHO 1645,UNIPOLAR,12.9,14.64,-99.23632901,19.49785314,"$172,500.00",,,RENTABLE,,
,EDO. DE MÉXICO,NAUCALPAN,2502,NORTE,PERIFERICO PAFNUNCIO PADILLA 1,UNIPOLAR,12.9,14.64,-99.23462489,19.51299149,"$207,000.00",,,RENTABLE,,
,EDO. DE MÉXICO,NAUCALPAN,2503,SUR,PERIFERICO PAFNUNCIO PADILLA 1,UNIPOLAR,12.9,14.64,-99.23462489,19.51299149,"$184,000.00",,,RENTABLE,,
,EDO. DE MÉXICO,NAUCALPAN,2506,NORTE,PERIFERICO CIRCUITO INGENIEROS 16,UNIPOLAR,12.9,14.64,-99.23441517,19.51491056,"$71,875.00",,,RENTABLE,,
,EDO. DE MÉXICO,NAUCALPAN,2507,SUR,PERIFERICO CIRCUITO INGENIEROS 16,UNIPOLAR,12.9,14.64,-99.23441517,19.51491056,"$86,250.00",,,RENTABLE,,
,EDO. DE MÉXICO,NAUCALPAN,2512,NORTE,RIO SAN JOAQUIN  VICENTE SEGURA 1,UNIPOLAR,12.9,14.64,-99.21829665,19.45576535,"$172,500.00",,,RENTABLE,,
,EDO. DE MÉXICO,NAUCALPAN,2513,SUR,RIO SAN JOAQUIN  VICENTE SEGURA 1,UNIPOLAR,12.9,14.64,-99.21829665,19.45576535,"$212,750.00",,,RENTABLE,,
,EDO. DE MÉXICO,NAUCALPAN,2515,SUR,PERIFERICO CIRCUITO DE LOS POETAS 5,UNIPOLAR,12.9,7.32,-99.23740122,19.49923915,"$172,500.00",,,RENTABLE,,
,EDO. DE MÉXICO,NAUCALPAN,2516,SUR,PERIFERICO BLVD. MANUEL AVILA CAMACHO CIRCUITO INGENIEROS 17,BIPOLAR,25,7.32,-99.2345826,19.51495076,"$86,250.00",,,RENTABLE,,
,EDO. DE MÉXICO,NAUCALPAN,2540,SUR,PERIFERICO BLVD. MANUEL AVILA CAMACHO 949,AZOTEA,12.9,7.32,-99.2364126,19.48928729,"$57,500.00",,,RENTABLE,,
,EDO. DE MÉXICO,NAUCALPAN,2543,NORTE,PERIFERICO BLVD. MANUEL AVILA CAMACHO   (465) 89,UNIPOLAR,12.9,11,-99.22626013,19.46921898,"$86,250.00",,,RENTABLE,,
,EDO. DE MÉXICO,NAUCALPAN,2544,SUR,PERIFERICO BLVD. MANUEL AVILA CAMACHO   (465) 89,UNIPOLAR,12.9,11,-99.22626013,19.46921898,"$143,750.00",,,RENTABLE,,
,EDO. DE MÉXICO,NAUCALPAN,2545,NORTE,PERIFERICO BLVD. MANUEL AVILA CAMACHO CAMINO A SAN MATEO 2,UNIPOLAR,12.9,14.64,-99.2346472,19.48405793,"$71,875.00",,,RENTABLE,,
,EDO. DE MÉXICO,NAUCALPAN,2568,SUR,PERIFERICO BLVD. MANUEL AVILA CAMACHO 975,AZOTEA,12.9,7.32,-99.2365532,19.49002556,"$92,000.00",,,RENTABLE,,
,EDO. DE MÉXICO,NAUCALPAN,2570,NORTE,PERIFERICO BLVD. MANUEL AVILA CAMACHO CALLE 4 25,UNIPOLAR,12.9,7.32,-99.22490517,19.46677406,"$57,500.00",,,RENTABLE,,
,EDO. DE MÉXICO,NAUCALPAN,2571,SUR,PERIFERICO BLVD. MANUEL AVILA CAMACHO CALLE 4 25,UNIPOLAR,12.9,7.32,-99.22490517,19.46677406,"$71,875.00",,,RENTABLE,,
,EDO. DE MÉXICO,NAUCALPAN,2574,SUR,PERIFERICO NORTE  987,AZOTEA,12.9,7.32,-99.23664307,19.49032626,"$43,125.00",,,RENTABLE,,
,EDO. DE MÉXICO,NAUCALPAN,2590,NORTE,PERIFERICO BLVD. MANUEL AVILA CAMACHO DIVERTIDO 758 CAMINO A SAN MATEO  2,UNIPOLAR,12.9,7.32,-99.23435388,19.48383399,"$71,875.00",,,RENTABLE,,
,EDO. DE MÉXICO,NAUCALPAN,2591,SUR,PERIFERICO BLVD. MANUEL AVILA CAMACHO DIVERTIDO 758 CAMINO A SAN MATEO  2,UNIPOLAR,12.9,7.32,-99.23435388,19.48383399,"$57,500.00",,,RENTABLE,,
,EDO. DE MÉXICO,NAUCALPAN,2592,NORTE,PERIFERICO BLVD. MANUEL AVILA CAMACHO 975,AZOTEA,10.8,7.32,-99.2365532,19.49002556,"$92,000.00",,,RENTABLE,,
,EDO. DE MÉXICO,NAUCALPAN,2594,SUR,PERIFERICO BLVD. MANUEL AVILA CAMACHO 260,UNIPOLAR,12.9,7.32,-99.22289546,19.46148633,"$57,500.00",,,RENTABLE,,
,EDO. DE MÉXICO,NAUCALPAN,2638,PONIENTE,LOMAS VERDES S/N (REDSKINS),UNIPOLAR,12.9,14.64,-99.24161992,19.48949914,"$103,500.00",,,RENTABLE,,
,EDO. DE MÉXICO,NAUCALPAN,2639,ORIENTE,LOMAS VERDES S/N (REDSKINS),UNIPOLAR,12.9,14.64,-99.24161992,19.48949914,"$103,500.00",,,RENTABLE,,
,EDO. DE MÉXICO,SN. FCO. SOYONIQUILPAN,13158,SUR,AUTOPISTA MEXICO QUERETARO KM. 95.5,UNIPOLAR,12.9,7.32,-99.53876293,20.0287175,"$20,527.50",,,RENTABLE,,
,EDO. DE MÉXICO,TLALNEPANTLA,04929-E01,NORTE,PERIFERICO BLVD. MANUEL AVILA CAMACHO FRENTE A TOKS,UNIPOLAR,12.9,7.32,-99.21654127,19.53748646,"$92,000.00",,,RENTABLE,,
,EDO. DE MÉXICO,TLALNEPANTLA,04929-E02,SUR,PERIFERICO BLVD. MANUEL AVILA CAMACHO FRENTE A TOKS,UNIPOLAR,12.9,7.32,-99.21654127,19.53748646,"$92,000.00",,,RENTABLE,,
,EDO. DE MÉXICO,TLALNEPANTLA,1008,NORTE,INSURGENTES NORTE  S/N,UNIPOLAR,12.9,7.32,-99.10306475,19.5113304,"$43,125.00",,,RENTABLE,,
,EDO. DE MÉXICO,TLALNEPANTLA,20116,PONIENTE,MARIO COLIN ESQ. VIA GUSTAVO BAZ   2,UNIPOLAR,12.9,7.32,-99.20705983,19.537215,"$35,937.50",,,RENTABLE,,
,EDO. DE MÉXICO,TLALNEPANTLA,20131,NORTE,PERIFERICO ESQ. CAÑADA 11,AZOTEA,12.9,7.32,-99.22828374,19.52124122,"$57,500.00",,,RENTABLE,,
,EDO. DE MÉXICO,TLALNEPANTLA,20205,NORTE,PERIFERICO BLVD. MANUEL AVILA CAMACHO ESQ. LOMAS BOULEVARES ,UNIPOLAR,12.9,7.32,-99.20985421,19.56891541,"$57,500.00",,,RENTABLE,,
,EDO. DE MÉXICO,TLALNEPANTLA,20206,SUR,PERIFERICO BLVD. MANUEL AVILA CAMACHO ESQ. LOMAS BOULEVARES ,UNIPOLAR,12.9,7.32,-99.20985421,19.56891541,"$57,500.00",,,RENTABLE,,
,EDO. DE MÉXICO,TLALNEPANTLA,20259,PONIENTE,REYES HEROLES ESQ. GUSTAVO BAZ ,UNIPOLAR,12.9,7.32,-99.20281084,19.56304292,"$41,400.00",,,RENTABLE,,
,EDO. DE MÉXICO,TLALNEPANTLA,20260,ORIENTE,REYES HEROLES ESQ. GUSTAVO BAZ ,UNIPOLAR,12.9,7.32,-99.20281084,19.56304292,"$41,400.00",,,RENTABLE,,
,EDO. DE MÉXICO,TLALNEPANTLA,20261,PONIENTE,REYES HEROLES CEYLAN 2108,AZOTEA,12.9,7.32,-99.19248575,19.55918014,"$40,250.00",,,RENTABLE,,
,EDO. DE MÉXICO,TLALNEPANTLA,2041,NORTE,PERIFERICO NORTE JUNTO A HOTEL REAL INN  ,UNIPOLAR,12.9,11,-99.20782858,19.54999005,"$69,000.00",,,RENTABLE,,
,EDO. DE MÉXICO,TLALNEPANTLA,2042,SUR,PERIFERICO NORTE JUNTO A HOTEL REAL INN  ,UNIPOLAR,12.9,11,-99.20782858,19.54999005,"$80,500.00",,,RENTABLE,,
,EDO. DE MÉXICO,TLALNEPANTLA,2049,NORTE,PERIFERICO NORTE Y VIVEROS DE LA HACIENDA  ,UNIPOLAR,12.9,7.32,-99.21999345,19.53221165,"$57,500.00",,,RENTABLE,,
,EDO. DE MÉXICO,TLALNEPANTLA,2050,SUR,PERIFERICO NORTE Y VIVEROS DE LA HACIENDA  ,UNIPOLAR,12.9,7.32,-99.21999345,19.53221165,"$57,500.00",,,RENTABLE,,
,EDO. DE MÉXICO,TLALNEPANTLA,2051,NORTE,PERIFERICO BLVD. MANUEL AVILA CAMACHO  75,UNIPOLAR,12.9,11,-99.2256924,19.5247684,"$69,000.00",,,RENTABLE,,
,EDO. DE MÉXICO,TLALNEPANTLA,2052,SUR,PERIFERICO BLVD. MANUEL AVILA CAMACHO  75,UNIPOLAR,12.9,11,-99.2256924,19.5247684,"$115,000.00",,,RENTABLE,,
,EDO. DE MÉXICO,TLALNEPANTLA,2053,NORTE,PERIFERICO BLVD. MANUEL AVILA CAMACHO PUENTE ARBOLEDAS    ,UNIPOLAR,12.9,7.32,-99.20710303,19.55116421,"$57,500.00",,,RENTABLE,,
,EDO. DE MÉXICO,TLALNEPANTLA,2054,SUR,PERIFERICO BLVD. MANUEL AVILA CAMACHO PUENTE ARBOLEDAS    ,UNIPOLAR,12.9,7.32,-99.20710303,19.55116421,"$57,500.00",,,RENTABLE,,
,EDO. DE MÉXICO,TLALNEPANTLA,2069,NORTE,PERIFERICO BLVD. MANUEL AVILA CAMACHO  21,AZOTEA,12.9,7.32,-99.23045708,19.5195848,"$69,000.00",,,RENTABLE,,
,EDO. DE MÉXICO,TLALNEPANTLA,2070,SUR,PERIFERICO BLVD. MANUEL AVILA CAMACHO  21,AZOTEA,12.9,7.32,-99.23045708,19.5195848,"$57,500.00",,,RENTABLE,,
,EDO. DE MÉXICO,TLALNEPANTLA,2157,SUR,PERIFERICO BLVD MANUEL AVILA CAMACHO FRENTE A LA  TORRE EJECUTIVA DE SATELITE  ,UNIPOLAR,12.9,7.32,-99.22927915,19.52084365,"$86,250.00",,,RENTABLE,,
,EDO. DE MÉXICO,TLALNEPANTLA,2158,NORTE,PERIFERICO BLVD MANUEL AVILA CAMACHO FRENTE A LA  TORRE EJECUTIVA DE SATELITE  ,UNIPOLAR,12.9,7.32,-99.22927915,19.52084365,"$69,000.00",,,RENTABLE,,
,EDO. DE MÉXICO,TLALNEPANTLA,2164,NORTE,GUSTAVO BAZ MARIO COLIN FRENTE A TOM BOY ,UNIPOLAR,12.9,7.32,-99.20725318,19.53739905,"$69,000.00",,,RENTABLE,,
,EDO. DE MÉXICO,TLALNEPANTLA,2322,NORTE,PERIFERICO NORTE AUTOPISTA MEXICO QUERETARO  S/N,UNIPOLAR,12.9,15,-99.20265392,19.58709002,"$57,500.00",,,RENTABLE,,
,EDO. DE MÉXICO,TLALNEPANTLA,2420,NORTE,PERIFERICO BLVD. MANUEL AVILA CAMACHO A LA ALTURA DE FRAC. VALLE DORADO ,UNIPOLAR,12.9,7.32,-99.20687089,19.56370634,"$35,937.50",,,RENTABLE,,
,EDO. DE MÉXICO,TLALNEPANTLA,2421,SUR,PERIFERICO BLVD. MANUEL AVILA CAMACHO A LA ALTURA DE FRAC. VALLE DORADO ,UNIPOLAR,12.9,7.32,-99.20687089,19.56370634,"$43,125.00",,,RENTABLE,,
,EDO. DE MÉXICO,TLALNEPANTLA,2436,NORTE,PERIFERICO BLVD. MANUEL AVILA CAMACHO # 3001,UNIPOLAR,12.9,14.64,-99.21607636,19.53725,"$69,000.00",,,RENTABLE,,
,EDO. DE MÉXICO,TLALNEPANTLA,2437,SUR,PERIFERICO BLVD. MANUEL AVILA CAMACHO # 3001,UNIPOLAR,12.9,7.32,-99.21607636,19.53725,"$57,500.00",,,RENTABLE,,
,EDO. DE MÉXICO,TLALNEPANTLA,2440,NORTE,PERIFERICO BLVD. MANUEL AVILA CAMACHO SATELITE 8,BIPOLAR,26,7.32,-99.22973822,19.51931497,"$143,750.00",,,RENTABLE,,
,EDO. DE MÉXICO,TLALNEPANTLA,2441,SUR,PERIFERICO BLVD. MANUEL AVILA CAMACHO SATELITE 8,BIPOLAR,26,7.32,-99.22973822,19.51931497,"$161,000.00",,,RENTABLE,,
,EDO. DE MÉXICO,TLALNEPANTLA,2450,NORTE,PERIFERICO VIA GUSTAVO BAZ 4321,BIPOLAR,25,7.32,-99.20653381,19.55205787,"$115,000.00",,,RENTABLE,,
,EDO. DE MÉXICO,TLALNEPANTLA,2455,SUR,PERIFERICO VIA GUSTAVO BAZ 4321,BIPOLAR,25,7.32,-99.20653381,19.55205787,"$92,000.00",,,RENTABLE,,
,EDO. DE MÉXICO,TLALNEPANTLA,2476,NORTE,PERIFERICO AUTOPISTA MEXICO QUERETARO PASANDO GASOLINERA LA CARCACHITA ,UNIPOLAR,12.9,7.32,-99.20348262,19.58625709,"$35,937.50",,,RENTABLE,,
,EDO. DE MÉXICO,TLALNEPANTLA,2477,SUR,PERIFERICO AUTOPISTA MEXICO QUERETARO PASANDO GASOLINERA LA CARCACHITA ,UNIPOLAR,12.9,7.32,-99.20348262,19.58625709,"$35,937.50",,,RENTABLE,,
,EDO. DE MÉXICO,TLALNEPANTLA,2519,NORTE,PERIFERICO BLVD. MANUEL AVILA CAMACHO 2000,UNIPOLAR,12.9,7.32,-99.21789188,19.53611757,"$57,500.00",,,RENTABLE,,
,EDO. DE MÉXICO,TLALNEPANTLA,2520,SUR,PERIFERICO BLVD. MANUEL AVILA CAMACHO 2000,UNIPOLAR,12.9,7.32,-99.21789188,19.53611757,"$71,875.00",,,RENTABLE,,
,EDO. DE MÉXICO,TLALNEPANTLA,2541,NORTE,PERIFERICO BLVD. MANUEL AVILA CAMACHO ESQ. EBANO #50,UNIPOLAR,12.9,14.64,-99.21599507,19.53863903,"$69,000.00",,,RENTABLE,,
,EDO. DE MÉXICO,TLALNEPANTLA,2542,SUR,PERIFERICO BLVD. MANUEL AVILA CAMACHO ESQ. EBANO #50,UNIPOLAR,12.9,14.64,-99.21599507,19.53863903,"$92,000.00",,,RENTABLE,,
,EDO. DE MÉXICO,TLALNEPANTLA,2554,SUR,PERIFERICO AUTOPISTA MEXICO QUERETARO ENTRONQUE VALLEJO ,BIPOLAR,26.8,14.64,-99.20750719,19.57377289,"$143,750.00",,,RENTABLE,,
,EDO. DE MÉXICO,TLALNEPANTLA,2598,NORTE,CARRETERA MEXICO PACHUCA KM. 3+300 ,UNIPOLAR,12.9,9.5,-99.09791361,19.5199267,"$43,125.00",,,RENTABLE,,
,EDO. DE MÉXICO,TLALNEPANTLA,2607,PONIENTE,MUNDO E JUAREZ 5 A/B,UNIPOLAR,12.9,7.32,-99.22668226,19.52686217,"$35,937.50",,,RENTABLE,,
,EDO. DE MÉXICO,TLALNEPANTLA,2608,ORIENTE,MUNDO E JUAREZ 5 A/B,UNIPOLAR,12.9,7.32,-99.22668226,19.52686217,"$35,937.50",,,RENTABLE,,
,EDO. DE MÉXICO,TLALNEPANTLA,2624,ORIENTE,REYES HEROLES CEYLAN 2108,AZOTEA,12.9,7.32,-99.19248575,19.55918014,"$28,750.00",,,RENTABLE,,
,EDO. DE MÉXICO,TLALNEPANTLA,2645,NORTE,PERIFERICO BLVD. MANUEL AVILA CAMACHO FTE. A HOME DEPOT ,UNIPOLAR,12.9,7.32,-99.21169858,19.54491213,"$57,500.00",,,RENTABLE,,
,EDO. DE MÉXICO,TLALNEPANTLA,2646,SUR,PERIFERICO BLVD. MANUEL AVILA CAMACHO FTE. A HOME DEPOT ,UNIPOLAR,,,-99.21169858,19.54491213,"$57,500.00",,,RENTABLE,,
,EDO. DE MÉXICO,TULTITLAN,20121,NORTE,VIA LOPEZ PORTILLO ENTRONQUE PUENTE PERINORTE,AZOTEA,12.9,7.32,-99.18259452,19.60738214,"$35,937.50",,,RENTABLE,,
,EDO. DE MÉXICO,TULTITLAN,2236,SUR,VIA LOPEZ PORTILLO GARDENIA 4,AZOTEA,12.9,7.32,-99.18036926,19.6113639,"$35,937.50",,,RENTABLE,,
,GUADALAJARA,EL SALTO,5015,NORTE,CARRETERA A CHAPALA SOLIDARIDAD IBERO AMERICANA (AGUAS) 7002,UNIPOLAR,12.9,9,-103.3150855,20.57764478,"$37,640.04",,,RENTABLE,,
,GUADALAJARA,EL SALTO,5016,SUR,CARRETERA A CHAPALA SOLIDARIDAD IBERO AMERICANA (AGUAS) 7002,UNIPOLAR,12.9,9,-103.3150855,20.57764478,"$39,621.09",,,RENTABLE,,
,GUADALAJARA,EL SALTO,5186,SUR,SOLIDARIDAD  2703,UNIPOLAR,12.9,7.32,-103.3079988,20.56303181,"$31,696.88",,,RENTABLE,,
,GUADALAJARA,EL SALTO,5187,NORTE,SOLIDARIDAD  2703,UNIPOLAR,12.9,7.32,-103.3079988,20.56303181,"$30,112.03",,,RENTABLE,,
,GUADALAJARA,EL SALTO,5275,NORTE,SOLIDARIDAD IBEROAMERICANA  2699,UNIPOLAR,12.9,7.32,-103.3088979,20.56476218,"$39,621.09",,,RENTABLE,,
,GUADALAJARA,EL SALTO,5276,SUR,SOLIDARIDAD IBEROAMERICANA  2699,UNIPOLAR,12.9,7.32,-103.3088979,20.56476218,"$39,621.09",,,RENTABLE,,
,GUADALAJARA,EL SALTO,5343,SUR,CARRETERA A CHAPALA 2697,UNIPOLAR,12.9,7.32,-103.3091682,20.56540544,"$37,640.04",,,RENTABLE,,
,GUADALAJARA,EL SALTO,5344,NORTE,CARRETERA A CHAPALA 2697,UNIPOLAR,12.9,7.32,-103.3091682,20.56540544,"$37,640.04",,,RENTABLE,,
,GUADALAJARA,GUADALAJARA,5023,PONIENTE,REVOLUCION FRENTE A U. DE G. 1499,UNIPOLAR,12.9,9,-103.3234407,20.65952667,"$45,281.25",,,RENTABLE,,
,GUADALAJARA,GUADALAJARA,5024,ORIENTE,REVOLUCION FRENTE A U. DE G. 1499,UNIPOLAR,12.9,9,-103.3234407,20.65952667,"$38,036.25",,,RENTABLE,,
,GUADALAJARA,GUADALAJARA,5034,SUR,8 DE JULIO 1739,UNIPOLAR,12.9,7.32,-103.3595946,20.65067822,"$38,036.25",,,RENTABLE,,
,GUADALAJARA,GUADALAJARA,5035,NORTE,8 DE JULIO 1739,UNIPOLAR,12.9,7.32,-103.3595946,20.65067822,"$38,036.25",,,RENTABLE,,
,GUADALAJARA,GUADALAJARA,5047,NORTE,COLON 1570,UNIPOLAR,12.9,7.32,-103.3615264,20.6573941,"$38,036.25",,,RENTABLE,,
,GUADALAJARA,GUADALAJARA,5048,SUR,COLON 1570,UNIPOLAR,12.9,7.32,-103.3615264,20.6573941,"$38,036.25",,,RENTABLE,,
,GUADALAJARA,GUADALAJARA,5066,PONIENTE,LAZARO CARDENAS 2890-A,AZOTEA,12.9,7.32,-103.3378199,20.63185511,"$48,300.00",,,RENTABLE,,
,GUADALAJARA,GUADALAJARA,5068,SUR,FEDERALISMO (GYM) 2257,UNIPOLAR,12.9,9,-103.3557162,20.71192435,"$47,696.25",,,RENTABLE,,
,GUADALAJARA,GUADALAJARA,5069,NORTE,FEDERALISMO (GYM) 2257,UNIPOLAR,12.9,9,-103.3557162,20.71192435,"$47,545.31",,,RENTABLE,,
,GUADALAJARA,GUADALAJARA,5074,SUR,CALZ. DEL EJERCITO ESQ. 5 DE FEBRERO 268,UNIPOLAR,12.9,7.32,-103.3354831,20.65782282,"$47,545.31",,,RENTABLE,,
,GUADALAJARA,GUADALAJARA,5075,NORTE,CALZ. DEL EJERCITO ESQ. 5 DE FEBRERO 268,UNIPOLAR,12.9,7.32,-103.3354831,20.65782282,"$47,545.31",,,RENTABLE,,
,GUADALAJARA,GUADALAJARA,5086,SUR,LAZARO CARDENAS 3840,UNIPOLAR,12.9,7.32,-103.3345042,20.6302428,"$48,300.00",,,RENTABLE,,
,GUADALAJARA,GUADALAJARA,5087,SUR,DEL EJERCITO CASI ESQ. GONZALEZ GALLO 1453,UNIPOLAR,12.9,7.32,-103.3364828,20.65305482,"$47,545.31",,,RENTABLE,,
,GUADALAJARA,GUADALAJARA,5088,NORTE,DEL EJERCITO CASI ESQ. GONZALEZ GALLO 1453,UNIPOLAR,12.9,7.32,-103.3364828,20.65305482,"$48,300.00",,,RENTABLE,,
,GUADALAJARA,GUADALAJARA,5094,SUR,GOBERNADOR CURIEL CERCA L. CARDENAS 2565,UNIPOLAR,12.9,7.32,-103.3512861,20.63816278,"$47,545.31",,,RENTABLE,,
,GUADALAJARA,GUADALAJARA,5095,NORTE,GOBERNADOR CURIEL CERCA L. CARDENAS 2565,UNIPOLAR,12.9,7.32,-103.3512861,20.63816278,"$47,545.31",,,RENTABLE,,
,GUADALAJARA,GUADALAJARA,5102,NORTE,MARCELINO GARCIA BARRAGAN 1200,UNIPOLAR,12.9,7.32,-103.331331,20.66025854,"$42,262.50",,,RENTABLE,,
,GUADALAJARA,GUADALAJARA,5103,SUR,MARCELINO GARCIA BARRAGAN 1200,UNIPOLAR,12.9,7.32,-103.331331,20.66025854,"$42,262.50",,,RENTABLE,,
,GUADALAJARA,GUADALAJARA,5109,NORTE,CIRCUNVALACION PROVIDENCIA 1815,UNIPOLAR,12.9,7.32,-103.3636879,20.70611906,"$38,036.25",,,RENTABLE,,
,GUADALAJARA,GUADALAJARA,5111,PONIENTE,MARIANO OTERO 580,UNIPOLAR,12.9,7.32,-103.3747482,20.66436762,"$44,375.63",,,RENTABLE,,
,GUADALAJARA,GUADALAJARA,5112,ORIENTE,MARIANO OTERO 580,UNIPOLAR,12.9,7.32,-103.3747482,20.66436762,"$44,375.63",,,RENTABLE,,
,GUADALAJARA,GUADALAJARA,5119,SUR,COLON ESQ. PALMA SOLA (CLINICA IMSS) 3071,UNIPOLAR,12.9,7.32,-103.3775286,20.63676846,"$47,545.31",,,RENTABLE,,
,GUADALAJARA,GUADALAJARA,5123,SUR,PROL. COLON 3160,UNIPOLAR,12.9,7.32,-103.38148,20.6319825,"$47,545.31",,,RENTABLE,,
,GUADALAJARA,GUADALAJARA,5124,NORTE,PROL. COLON 3160,UNIPOLAR,12.9,7.32,-103.38148,20.6319825,"$47,545.31",,,RENTABLE,,
,GUADALAJARA,GUADALAJARA,5199,PONIENTE,CALZ. LAZARO CARDENAS  1188,UNIPOLAR,12.9,7.32,-103.3338426,20.62865066,"$57,054.38",,,RENTABLE,,
,GUADALAJARA,GUADALAJARA,5212,PONIENTE,RIO NILO 3660,UNIPOLAR,12.9,7.32,-103.2869875,20.64410329,"$36,225.00",,,RENTABLE,,
,GUADALAJARA,GUADALAJARA,5213,ORIENTE,RIO NILO 3660,UNIPOLAR,12.9,7.32,-103.2869875,20.64410329,"$39,621.09",,,RENTABLE,,
,GUADALAJARA,GUADALAJARA,5221,ORIENTE,LAZARO CARDENAS 1854,UNIPOLAR,12.9,7.32,-103.3697456,20.65232527,"$47,545.31",,,RENTABLE,,
,GUADALAJARA,GUADALAJARA,5222,PONIENTE,LAZARO CARDENAS 1854,UNIPOLAR,12.9,7.32,-103.3697456,20.65232527,"$44,375.63",,,RENTABLE,,
,GUADALAJARA,GUADALAJARA,5225,SUR,8 DE JULIO #2676,UNIPOLAR,12.9,7.32,-103.3656815,20.63738539,"$47,545.31",,,RENTABLE,,
,GUADALAJARA,GUADALAJARA,5226,NORTE,8 DE JULIO #2676,UNIPOLAR,12.9,7.32,-103.3656815,20.63738539,"$47,545.31",,,RENTABLE,,
,GUADALAJARA,GUADALAJARA,5236,SUR,PLUTARCO ELIAS CALLES #605,UNIPOLAR,12.9,7.32,-103.2964552,20.67106458,"$47,545.31",,,RENTABLE,,
,GUADALAJARA,GUADALAJARA,5237,NORTE,PLUTARCO ELIAS CALLES #605,UNIPOLAR,12.9,7.32,-103.2964552,20.67106458,"$47,545.31",,,RENTABLE,,
,GUADALAJARA,GUADALAJARA,5238,SUR,CALZADA INDEPENDENCIA ESQ. FRATERNIDAD  18,UNIPOLAR,12.9,7.32,-103.3235901,20.70838862,"$44,375.63",,,RENTABLE,,
,GUADALAJARA,GUADALAJARA,5244,SUR,REVOLUCION 2797,UNIPOLAR,12.9,7.32,-103.3033013,20.64368633,"$36,225.00",,,RENTABLE,,
,GUADALAJARA,GUADALAJARA,5245,SUR,BELISARIO DOMINGUEZ 1987,UNIPOLAR,12.9,7.32,-103.3194784,20.6997951,"$47,545.31",,,RENTABLE,,
,GUADALAJARA,GUADALAJARA,5246,NORTE,BELISARIO DOMINGUEZ 1987,UNIPOLAR,12.9,7.32,-103.3194784,20.6997951,"$47,545.31",,,RENTABLE,,
,GUADALAJARA,GUADALAJARA,5247,SUR,CRUZ DEL SUR 2593,UNIPOLAR,12.9,9,-103.3817815,20.64562017,"$47,545.31",,,RENTABLE,,
,GUADALAJARA,GUADALAJARA,5248,NORTE,CRUZ DEL SUR 2593,UNIPOLAR,12.9,9,-103.3817815,20.64562017,"$47,545.31",,,RENTABLE,,
,GUADALAJARA,GUADALAJARA,5249,SUR,8 DE JULIO #3055,UNIPOLAR,12.9,7.32,-103.3679134,20.63103595,"$47,545.31",,,RENTABLE,,
,GUADALAJARA,GUADALAJARA,5250,NORTE,8 DE JULIO #3055,UNIPOLAR,12.9,7.32,-103.3679134,20.63103595,"$47,545.31",,,RENTABLE,,
,GUADALAJARA,GUADALAJARA,5251,SUR,CIRCUNVALACION ESQ. ARTESANOS 1108,UNIPOLAR,12.9,7.32,-103.2942003,20.68956347,"$42,262.50",,,RENTABLE,,
,GUADALAJARA,GUADALAJARA,5252,NORTE,CIRCUNVALACION ESQ. ARTESANOS 1108,UNIPOLAR,12.9,7.32,-103.2942003,20.68956347,"$47,545.31",,,RENTABLE,,
,GUADALAJARA,GUADALAJARA,5269,SUR,GONZALEZ GALLO 2010,UNIPOLAR,12.9,7.32,-103.3308867,20.64199749,"$47,545.31",,,RENTABLE,,
,GUADALAJARA,GUADALAJARA,5294,ORIENTE,LAZARO CARDENAS 1249,UNIPOLAR,12.9,7.32,-103.3612362,20.6466846,"$44,375.63",,,RENTABLE,,
,GUADALAJARA,GUADALAJARA,5295,PONIENTE,REVOLUCION 1387,UNIPOLAR,12.2,8,-103.3255357,20.66084558,"$47,545.31",,,RENTABLE,,
,GUADALAJARA,GUADALAJARA,5296,ORIENTE,REVOLUCION 1387,UNIPOLAR,12.2,8,-103.3255357,20.66084558,"$38,036.25",,,RENTABLE,,
,GUADALAJARA,GUADALAJARA,5309,NORTE,REVOLUCION 2797,UNIPOLAR,12.9,7.32,-103.3033082,20.64369397,"$36,225.00",,,RENTABLE,,
,GUADALAJARA,GUADALAJARA,5310,NORTE,AMERICAS 650,UNIPOLAR,12.2,8,-103.3731002,20.68819051,"$76,072.50",,,RENTABLE,,
,GUADALAJARA,GUADALAJARA,5311,SUR,AMERICAS 650,UNIPOLAR,12.2,8,-103.3731002,20.68819051,"$72,450.00",,,RENTABLE,,
,GUADALAJARA,GUADALAJARA,5336,ORIENTE,LAZARO CARDENAS 704,UNIPOLAR,12.9,7.32,-103.3361105,20.6315326,"$38,036.25",,,RENTABLE,,
,GUADALAJARA,GUADALAJARA,5110,SUR,CIRCUNVALACION PROVIDENCIA 1815,UNIPOLAR,12.9,7.32,-103.3636879,20.70611906,"$54,337.50",,,RENTABLE,,
,GUADALAJARA,GUADALAJARA,5127,NORTE,AGUSTIN YAÑEZ #1321,UNIPOLAR,12.9,7.32,-103.3577828,20.65956589,"$42,262.50",,,RENTABLE,,
,GUADALAJARA,GUADALAJARA,5293,PONIENTE,LAZARO CARDENAS 1249,UNIPOLAR,12.9,7.32,-103.3612362,20.6466846,"$54,337.50",,,RENTABLE,,
,GUADALAJARA,GUADALAJARA,5326,ORIENTE,LAZARO CARDENAS 501,UNIPOLAR,12.9,7.32,-103.3434386,20.63783209,"$78,487.50",,,RENTABLE,,
,GUADALAJARA,TLAJOMULCO,5001,PONIENTE,AEROPUERTO DE GUADALAJARA  CARRETERA A CHAPALA KM 12,UNIPOLAR,40,11.8,-103.2922882,20.53226561,"$301,875.00",,,RENTABLE,,
,GUADALAJARA,TLAJOMULCO,5004,PONIENTE,AEROPUERTO DE GUADALAJARA  CARRETERA A CHAPALA KM 12,UNIPOLAR,52,14.8,-103.292353,20.53237469,"$362,250.00",,,RENTABLE,,
,GUADALAJARA,TLAJOMULCO,5345,PONIENTE,CARRETERA A CHAPALA QUINTA LAS GARZAS 735,UNIPOLAR,12.9,7.32,-103.2908156,20.53404547,"$39,621.09",,,RENTABLE,,
,GUADALAJARA,TLAJOMULCO,5346,ORIENTE,CARRETERA A CHAPALA QUINTA LAS GARZAS 735,UNIPOLAR,12.9,7.32,-103.2908156,20.53404547,"$37,640.04",,,RENTABLE,,
,GUADALAJARA,TLAJOMULCO DE ZUÑIGA,5255,NORTE,CARRETERA A MORELIA (SAN AGUSTIN) KM. 17 ,UNIPOLAR,12.9,7.32,-103.4713522,20.54768921,"$39,621.09",,,RENTABLE,,
,GUADALAJARA,TLAJOMULCO DE ZUÑIGA,5256,SUR,CARRETERA A MORELIA (SAN AGUSTIN) KM. 17 ,UNIPOLAR,12.9,7.32,-103.4713522,20.54768921,"$39,621.09",,,RENTABLE,,
,GUADALAJARA,TLAJOMULCO DE ZUÑIGA,5318,NORTE,CARRETERA A MORELIA 7750,UNIPOLAR,12,8,-103.4723561,20.54451691,"$42,262.50",,,RENTABLE,,
,GUADALAJARA,TLAJOMULCO DE ZUÑIGA,5319,SUR,CARRETERA A MORELIA 7750,UNIPOLAR,12,8,-103.4723561,20.54451691,"$42,262.50",,,RENTABLE,,
,GUADALAJARA,TLAJOMULCO DE ZUÑIGA,5320,NORTE,CARRETERA A MORELIA 1770,UNIPOLAR,12.3,15.7,-103.447181,20.58439215,"$54,337.50",,,RENTABLE,,
,GUADALAJARA,TLAJOMULCO DE ZUÑIGA,5321,SUR,CARRETERA A MORELIA 1770,UNIPOLAR,12.3,15.7,-103.447181,20.58439215,"$54,337.50",,,RENTABLE,,
,GUADALAJARA,TLAQUEPAQUE,5084,NORTE,AV. REVOLUCION AZUCENA 28,UNIPOLAR,12.9,7.32,-103.3031691,20.64277549,"$45,281.25",,,RENTABLE,,
,GUADALAJARA,TLAQUEPAQUE,5194,NORTE,CARRETERA A CHAPALA 3029,UNIPOLAR,12.9,7.32,-103.3210997,20.62099812,"$27,772.50",,,RENTABLE,,
,GUADALAJARA,TLAQUEPAQUE,5195,SUR,CARRETERA A CHAPALA 3029,UNIPOLAR,12.9,7.32,-103.3210997,20.62099812,"$36,225.00",,,RENTABLE,,
,GUADALAJARA,TLAQUEPAQUE,5201,ORIENTE,PERIFERICO SUR  5400,UNIPOLAR,12.9,7.32,-103.3341293,20.58416147,"$27,772.50",,,RENTABLE,,
,GUADALAJARA,TLAQUEPAQUE,5202,PONIENTE,PERIFERICO SUR  5400,UNIPOLAR,12.9,7.32,-103.3341293,20.58416147,"$27,772.50",,,RENTABLE,,
,GUADALAJARA,TLAQUEPAQUE,5204,NORTE,OLEODUCTO 2285  2885,UNIPOLAR,12.9,7.32,-103.3259922,20.62385052,"$42,262.50",,,RENTABLE,,
,GUADALAJARA,TLAQUEPAQUE,5208,PONIENTE,LAZARO CARDENAS ESQ. REFINERIA  2748,UNIPOLAR,12.9,7.32,-103.3269551,20.62533709,"$30,187.50",,,RENTABLE,,
,GUADALAJARA,TLAQUEPAQUE,5209,ORIENTE,LAZARO CARDENAS ESQ. REFINERIA  2748,UNIPOLAR,12.9,7.32,-103.3269551,20.62533709,"$48,300.00",,,RENTABLE,,
,GUADALAJARA,TLAQUEPAQUE,5211,SUR,REVOLUCION 96,UNIPOLAR,12.9,7.32,-103.3003795,20.63847249,"$42,262.50",,,RENTABLE,,
,GUADALAJARA,TLAQUEPAQUE,5301,PONIENTE,LAZARO CARDENAS 1437,UNIPOLAR,12,8,-103.3292422,20.6266149,"$42,262.50",,,RENTABLE,,
,GUADALAJARA,TLAQUEPAQUE,5302,ORIENTE,LAZARO CARDENAS 1437,UNIPOLAR,12,8,-103.3292422,20.6266149,"$54,337.50",,,RENTABLE,,
,GUADALAJARA,ZAPOPAN,5033,NORTE,LOPEZ MATEOS (GRUAS MANOLO) 5900,UNIPOLAR,12.9,7.32,-103.4212676,20.6236038,"$50,715.00",,,RENTABLE,,
,GUADALAJARA,ZAPOPAN,5045,PONIENTE,MARIANO OTERO 5130,UNIPOLAR,12.9,7.32,-103.4230585,20.63614526,"$47,545.31",,,RENTABLE,,
,GUADALAJARA,ZAPOPAN,5061,SUR,LOPEZ MATEOS SUR 4205,UNIPOLAR,12.9,7.32,-103.4075467,20.64362697,"$50,715.00",,,RENTABLE,,
,GUADALAJARA,ZAPOPAN,5062,NORTE,LOPEZ MATEOS SUR 4205,UNIPOLAR,12.9,7.32,-103.4075467,20.64362697,"$63,393.75",,,RENTABLE,,
,GUADALAJARA,ZAPOPAN,5091,PONIENTE,MARIANO OTERO (TALLER) 5721,UNIPOLAR,12.9,7.32,-103.43049,20.63111382,"$48,300.00",,,RENTABLE,,
,GUADALAJARA,ZAPOPAN,5130,NORTE,COPERNICO 3173,UNIPOLAR,12.9,7.32,-103.4277824,20.63701806,"$47,545.31",,,RENTABLE,,
,GUADALAJARA,ZAPOPAN,5131,SUR,COPERNICO 3173,UNIPOLAR,12.9,7.32,-103.4277824,20.63701806,"$48,300.00",,,RENTABLE,,
,GUADALAJARA,ZAPOPAN,5132,NORTE,PATRIA 36,AZOTEA,12.9,7.32,-103.4212208,20.67944407,"$90,562.50",,,RENTABLE,,
,GUADALAJARA,ZAPOPAN,5133,SUR,PATRIA 36,AZOTEA,12.9,7.32,-103.4212208,20.67944407,"$90,562.50",,,RENTABLE,,
,GUADALAJARA,ZAPOPAN,5135,SUR,PATRIA 50,UNIPOLAR,12.9,7.32,-103.4212151,20.67949477,"$90,562.50",,,RENTABLE,,
,GUADALAJARA,ZAPOPAN,5146,NORTE,FEDERALISMO NORTE 2722,UNIPOLAR,12.9,7.32,-103.353516,20.71908138,"$43,125.00",,,RENTABLE,,
,GUADALAJARA,ZAPOPAN,5147,SUR,FEDERALISMO NORTE 2722,UNIPOLAR,12.9,7.32,-103.353516,20.71908138,"$43,125.00",,,RENTABLE,,
,GUADALAJARA,ZAPOPAN,5150,ORIENTE,PATRIA 2094,UNIPOLAR,12.9,7.32,-103.3610076,20.71354148,"$90,562.50",,,RENTABLE,,
,GUADALAJARA,ZAPOPAN,5151,PONIENTE,PATRIA 2094,UNIPOLAR,12.9,7.32,-103.3610076,20.71354148,"$90,562.50",,,RENTABLE,,
,GUADALAJARA,ZAPOPAN,5169,PONIENTE,MARIANO OTERO 5151,UNIPOLAR,12.9,7.32,-103.4274652,20.63279092,"$47,545.31",,,RENTABLE,,
,GUADALAJARA,ZAPOPAN,5179,SUR,LOPEZ MATEOS 5871,UNIPOLAR,12.9,7.32,-103.4204083,20.62409006,"$47,545.31",,,RENTABLE,,
,GUADALAJARA,ZAPOPAN,5180,SUR,VALLARTA 6041,UNIPOLAR,12.9,7.32,-103.4425637,20.68500867,"$38,036.25",,,RENTABLE,,
,GUADALAJARA,ZAPOPAN,5181,NORTE,VALLARTA 6041,UNIPOLAR,12.9,7.32,-103.4425637,20.68500867,"$42,262.50",,,RENTABLE,,
,GUADALAJARA,ZAPOPAN,5183,ORIENTE,MARIANO OTERO 5313,UNIPOLAR,12.9,7.32,-103.4240168,20.63501578,"$38,036.25",,,RENTABLE,,
,GUADALAJARA,ZAPOPAN,5223,ORIENTE,GUADALUPE 5449,UNIPOLAR,12.9,7.32,-103.429053,20.66116887,"$39,621.09",,,RENTABLE,,
,GUADALAJARA,ZAPOPAN,5224,PONIENTE,GUADALUPE 5449,UNIPOLAR,12.9,7.32,-103.429053,20.66116887,"$50,715.00",,,RENTABLE,,
,GUADALAJARA,ZAPOPAN,5229,PONIENTE,MARIANO OTERO  5771,UNIPOLAR,12.9,7.32,-103.4313104,20.63085527,"$47,545.31",,,RENTABLE,,
,GUADALAJARA,ZAPOPAN,5232,SUR,PROLONGACION LOPEZ MATEOS 5998,UNIPOLAR,12.9,7.32,-103.4369108,20.6000607,"$42,262.50",,,RENTABLE,,
,GUADALAJARA,ZAPOPAN,5263,NORTE,VALLARTA 7127,UNIPOLAR,12.9,7.32,-103.4436926,20.68592849,"$42,262.50",,,RENTABLE,,
,GUADALAJARA,ZAPOPAN,5264,SUR,VALLARTA 7127,UNIPOLAR,12.9,7.32,-103.4436926,20.68592849,"$42,262.50",,,RENTABLE,,
,GUADALAJARA,ZAPOPAN,5270,NORTE,LOPEZ MATEOS 2108,UNIPOLAR,12.9,9,-103.3992097,20.65694992,"$90,562.50",,,RENTABLE,,
,GUADALAJARA,ZAPOPAN,5271,SUR,LOPEZ MATEOS 2108,UNIPOLAR,12.9,9,-103.3992097,20.65694992,"$90,562.50",,,RENTABLE,,
,GUADALAJARA,ZAPOPAN,5297,NORTE,LOPEZ MATEOS 5597,UNIPOLAR,12,8,-103.4185643,20.62680862,"$44,375.63",,,RENTABLE,,
,GUADALAJARA,ZAPOPAN,5298,SUR,LOPEZ MATEOS 5597,UNIPOLAR,12,8,-103.4185643,20.62680862,"$47,545.31",,,RENTABLE,,
,GUADALAJARA,ZAPOPAN,5299,NORTE,PATRIA 1884-A,UNIPOLAR,12.15,8,-103.4130903,20.70543964,"$163,012.50",,,RENTABLE,,
,GUADALAJARA,ZAPOPAN,5300,SUR,PATRIA 1884-A,UNIPOLAR,12,8,-103.4130903,20.70543964,"$126,787.50",,,RENTABLE,,
,GUADALAJARA,ZAPOPAN,5312,PONIENTE,PATRIA 794,UNIPOLAR,12,8,-103.4159496,20.6899665,"$90,562.50",,,RENTABLE,,
,GUADALAJARA,ZAPOPAN,5313,ORIENTE,PATRIA 794,UNIPOLAR,12,8,-103.4159496,20.6899665,"$90,562.50",,,RENTABLE,,
,GUADALAJARA,ZAPOPAN,5316,PONIENTE,CARRETERA GDL - TEPIC 9835,UNIPOLAR,12,15.6,-103.5317577,20.72975269,"$36,225.00",,,RENTABLE,,
,GUADALAJARA,ZAPOPAN,5317,ORIENTE,CARRETERA GDL - TEPIC 9835,UNIPOLAR,12,15.6,-103.5317577,20.72975269,"$36,225.00",,,RENTABLE,,
,GUADALAJARA,ZAPOPAN,5331,SUR,LOPEZ MATEOS SUR 6401,UNIPOLAR,12.9,7.32,-103.4307228,20.60837123,"$38,036.25",,,RENTABLE,,
,GUADALAJARA,ZAPOPAN,5332,NORTE,LOPEZ MATEOS SUR 6401,UNIPOLAR,12.9,7.32,-103.4307228,20.60837123,"$38,036.25",,,RENTABLE,,
,GUADALAJARA,ZAPOPAN,5333,SUR,LOPEZ MATEOS SUR 3002,UNIPOLAR,12.9,7.32,-103.4324937,20.60575531,"$45,885.00",,,RENTABLE,,
,GUADALAJARA,ZAPOPAN,5334,NORTE,LOPEZ MATEOS SUR 2030,AZOTEA,12.9,7.32,-103.4289566,20.61213854,"$42,262.50",,,RENTABLE,,
,GUADALAJARA,ZAPOPAN,5335,SUR,LOPEZ MATEOS SUR 2030,AZOTEA,12.9,7.32,-103.4289566,20.61213854,"$38,036.25",,,RENTABLE,,
,GUADALAJARA,ZAPOPAN,5355,NORTE,LOPEZ MATEOS SUR 3002,AUTOSOPORTADO,12.9,7.32,-103.4324937,20.60575531,"$38,036.25",,,RENTABLE,,
,GUADALAJARA,ZAPOPAN,5046,ORIENTE,MARIANO OTERO 5130,UNIPOLAR,12.9,7.32,-103.4230585,20.63614526,"$59,590.13",,,RENTABLE,,
,GUADALAJARA,ZAPOPAN,5134,NORTE,PATRIA 50,UNIPOLAR,12.9,7.32,-103.4212151,20.67949477,"$90,562.50",,,RENTABLE,,
,GUADALAJARA,ZAPOPAN,5136,PONIENTE,VALLARTA 5668-A,UNIPOLAR,12.9,7.32,-103.4380052,20.6826508,"$76,072.50",,,RENTABLE,,
,GUADALAJARA,ZAPOPAN,5137,ORIENTE,VALLARTA 5668-A,UNIPOLAR,12.9,7.32,-103.4380052,20.6826508,"$76,072.50",,,RENTABLE,,
,GUADALAJARA,ZAPOPAN,5182,PONIENTE,MARIANO OTERO 5313,UNIPOLAR,12.9,7.32,-103.4240168,20.63501578,"$47,545.31",,,RENTABLE,,
,GUADALAJARA,ZAPOPAN,5205,SUR,PATRIA 179,UNIPOLAR,12.9,7.32,-103.4224286,20.67294204,"$90,562.50",,,RENTABLE,,
,GUADALAJARA,ZAPOPAN,5032,SUR,LOPEZ MATEOS (GRUAS MANOLO) 5900,UNIPOLAR,12.9,7.32,-103.4212676,20.6236038,"$60,224.06",,,RENTABLE,,
,GUADALAJARA,ZAPOPAN,5178,NORTE,LOPEZ MATEOS 5871 sobre LOPEZ MATEOS  5871, UNIPOLAR,12.9,7.32,-103.4204083,20.62409006,"$57,054.38",,,RENTABLE,,
,GUADALAJARA,ZAPOPAN,5233,NORTE,PROLONGACION LOPEZ MATEOS 5998,UNIPOLAR,12.9,7.32,-103.4369108,20.6000607,"$38,036.25",,,RENTABLE,,
,MONTERREY,GUADALUPE,6035,PONIENTE,MIGUEL ALEMAN 4435,UNIPOLAR,12.9,7.32,-100.2569787,25.68924438,"$33,810.00",,,RENTABLE,,
,MONTERREY,GUADALUPE,6036,ORIENTE,MIGUEL ALEMAN 4435,UNIPOLAR,12.9,7.32,-100.2569787,25.68924438,"$42,262.50",,,RENTABLE,,
,MONTERREY,GUADALUPE,6060,ORIENTE,CONSTITUCION RAUL RANGEL FRIAS 302,UNIPOLAR,12.9,7.32,-100.1855675,25.69270751,"$36,225.00",,,RENTABLE,,
,MONTERREY,GUADALUPE,6061,PONIENTE,CONSTITUCION RAUL RANGEL FRIAS 302,UNIPOLAR,12.9,7.32,-100.1855675,25.69270751,"$24,546.06",,,RENTABLE,,
,MONTERREY,GUADALUPE,6096,ORIENTE,MIGUEL ALEMAN 301,AZOTEA,12.9,7.32,-100.2512082,25.6909478,"$33,810.00",,,RENTABLE,,
,MONTERREY,GUADALUPE,6097,PONIENTE,MIGUEL ALEMAN 301,AZOTEA,12.9,7.32,-100.2512082,25.6909478,"$33,810.00",,,RENTABLE,,
,MONTERREY,GUADALUPE,6255,ORIENTE,OLEODUCTO  II 302,UNIPOLAR,12.9,7.32,-100.2294481,25.6935197,"$42,262.50",,,RENTABLE,,
,MONTERREY,GUADALUPE,6256,PONIENTE,OLEODUCTO  II 302,UNIPOLAR,12.9,7.32,-100.2294481,25.6935197,"$30,187.50",,,RENTABLE,,
,MONTERREY,GUADALUPE,6064,PONIENTE,MIGUEL ALEMAN #260,UNIPOLAR,12.9,7.32,-100.25119,25.690524,"$30,682.58",,,RENTABLE,,
,MONTERREY,GUADALUPE,6065,ORIENTE,MIGUEL ALEMAN #260,UNIPOLAR,12.9,7.32,-100.25119,25.690524,"$42,262.50",,,RENTABLE,,
,MONTERREY,GUADALUPE,6351,ORIENTE,AV. ELOY CAVAZOS  ESQUINA  AV ISRAEL CAVAZOS ,UNIPOLAR,12.9,7.32,-100.189384,25.64970429,"$42,262.50",,,RENTABLE,,
,MONTERREY,GUADALUPE,6352,PONIENTE,AV. ELOY CAVAZOS  ESQUINA  AV ISRAEL CAVAZOS ,UNIPOLAR,12.9,7.32,-100.189384,25.64970429,"$42,262.50",,,RENTABLE,,
,MONTERREY,GUADALUPE,6353,SUR,AV ISRAEL CAVAZOS (AV. MEXICO)  ESQUINA AV. ELOY CAVAZOS,UNIPOLAR,12.9,7.32,-100.1879894,25.6500192,"$42,262.50",,,RENTABLE,,
,MONTERREY,GUADALUPE,6354,NORTE,AV ISRAEL CAVAZOS (AV. MEXICO)  ESQUINA AV. ELOY CAVAZOS,UNIPOLAR,12.9,7.32,-100.1879894,25.6500192,"$42,262.50",,,RENTABLE,,
,MONTERREY,MONTERREY,04962-E01,ORIENTE,CONSTITUCION Y CONTITUYENTES II,UNIPOLAR,12.9,7.32,-100.2649728,25.68288375,"$42,262.50",,,RENTABLE,,
,MONTERREY,MONTERREY,04963-E01,ORIENTE,CONSTITUCION Y CONSTITUYENTES III,UNIPOLAR,12.9,7.32,-100.2665431,25.68277249,"$42,262.50",,,RENTABLE,,
,MONTERREY,MONTERREY,04963-E02,PONIENTE,CONSTITUCION Y CONSTITUYENTES III,UNIPOLAR,12.9,7.32,-100.2665431,25.68277249,"$42,262.50",,,RENTABLE,,
,MONTERREY,MONTERREY,6003,SUR,GONZALITOS 2500 LOC. 5,UNIPOLAR,12.9,7.32,-100.3511547,25.70659716,"$48,300.00",,,RENTABLE,,
,MONTERREY,MONTERREY,6008,SUR,REVOLUCION 3313,UNIPOLAR,12.9,7.32,-100.274518,25.65040881,"$45,885.00",,,RENTABLE,,
,MONTERREY,MONTERREY,6011,PONIENTE,CONSTITUCION ESQ. DEGOLLADO 1531,UNIPOLAR,12.9,7.32,-100.3377385,25.66879734,"$54,337.50",,,RENTABLE,,
,MONTERREY,MONTERREY,6013,SUR,REVOLUCION 635,UNIPOLAR,12.9,7.32,-100.2835133,25.66427917,"$42,262.50",,,RENTABLE,,
,MONTERREY,MONTERREY,6014,NORTE,REVOLUCION 635,UNIPOLAR,12.9,7.32,-100.2835133,25.66427917,"$42,262.50",,,RENTABLE,,
,MONTERREY,MONTERREY,6017,ORIENTE,ALFONSO REYES 2720,UNIPOLAR,12.9,7.32,-100.2931708,25.63899159,"$42,262.50",,,RENTABLE,,
,MONTERREY,MONTERREY,6018,PONIENTE,ALFONSO REYES 2720,UNIPOLAR,12.9,7.32,-100.2931708,25.63899159,"$42,262.50",,,RENTABLE,,
,MONTERREY,MONTERREY,6031,NORTE,G. SADA Y 2 DE ABRIL 2120,UNIPOLAR,12.9,7.32,-100.295399,25.65569,"$50,715.00",,,RENTABLE,,
,MONTERREY,MONTERREY,6032,SUR,G. SADA Y 2 DE ABRIL 2120,UNIPOLAR,12.9,7.32,-100.295399,25.65569,"$50,715.00",,,RENTABLE,,
,MONTERREY,MONTERREY,6051,SUR,FIDEL VELAZQUEZ 701,UNIPOLAR,12.9,7.32,-100.3209101,25.7283911,"$42,262.50",,,RENTABLE,,
,MONTERREY,MONTERREY,6052,NORTE,GONZALITOS 2500 L.5,UNIPOLAR,12.9,7.32,-100.3511547,25.70659716,"$48,300.00",,,RENTABLE,,
,MONTERREY,MONTERREY,6058,ORIENTE,ALFONSO REYES 2913,UNIPOLAR,12.9,7.32,-100.2949334,25.63835912,"$42,262.50",,,RENTABLE,,
,MONTERREY,MONTERREY,6059,PONIENTE,ALFONSO REYES 2913,UNIPOLAR,12.9,7.32,-100.2949334,25.63835912,"$42,262.50",,,RENTABLE,,
,MONTERREY,MONTERREY,6062,PONIENTE,ABRAHAM LINCOLN 500,UNIPOLAR,12.9,7.32,-100.3484343,25.71316689,"$36,225.00",,,RENTABLE,,
,MONTERREY,MONTERREY,6063,ORIENTE,ABRAHAM LINCOLN 500,UNIPOLAR,12.9,7.32,-100.3484343,25.71316689,"$36,225.00",,,RENTABLE,,
,MONTERREY,MONTERREY,6069,NORTE,F. VELAZQUEZ RIO SAN JUAN 218,UNIPOLAR,12.9,7.32,-100.3395169,25.72006394,"$33,810.00",,,RENTABLE,,
,MONTERREY,MONTERREY,6070,SUR,F. VELAZQUEZ RIO SAN JUAN 218,UNIPOLAR,12.9,7.32,-100.3395169,25.72006394,"$23,377.20",,,RENTABLE,,
,MONTERREY,MONTERREY,6071,ORIENTE,RUIZ CORTINEZ 357,UNIPOLAR,12.9,7.32,-100.3362709,25.70443228,"$42,262.50",,,RENTABLE,,
,MONTERREY,MONTERREY,6072,PONIENTE,RUIZ CORTINEZ 357,UNIPOLAR,12.9,7.32,-100.3362709,25.70443228,"$42,262.50",,,RENTABLE,,
,MONTERREY,MONTERREY,6073,ORIENTE,RIO NAZAS 105,UNIPOLAR,12.9,7.32,-100.303231,25.64248566,"$33,810.00",,,RENTABLE,,
,MONTERREY,MONTERREY,6074,PONIENTE,RIO NAZAS 105,UNIPOLAR,12.9,7.32,-100.303231,25.64248566,"$33,810.00",,,RENTABLE,,
,MONTERREY,MONTERREY,6077,NORTE,JUAN ALVAREZ 908,AZOTEA,12.2,7.32,-100.3230103,25.68450616,"$33,810.00",,,RENTABLE,,
,MONTERREY,MONTERREY,6098,NORTE,FIDEL VELAZQUEZ 701,UNIPOLAR,12.9,7.32,-100.3209101,25.7283911,"$30,187.50",,,RENTABLE,,
,MONTERREY,MONTERREY,6105,NORTE,RANGEL FRIAS  ESQ. RUIZ CORTINEZ 616,UNIPOLAR,12.9,7.32,-100.3632685,25.71372827,"$36,225.00",,,RENTABLE,,
,MONTERREY,MONTERREY,6106,SUR,RANGEL FRIAS  ESQ. RUIZ CORTINEZ 616,UNIPOLAR,12.9,7.32,-100.3632685,25.71372827,"$36,225.00",,,RENTABLE,,
,MONTERREY,MONTERREY,6117,NORTE,REVOLUCION Y J. CANTU LEAL 711,UNIPOLAR,12.9,7.32,-100.2840679,25.66417696,"$54,337.50",,,RENTABLE,,
,MONTERREY,MONTERREY,6122,NORTE,JOSE CONCHELO  LUIS URBINA 1921,UNIPOLAR,12.9,7.32,-100.2945633,25.6890656,"$30,187.50",,,RENTABLE,,
,MONTERREY,MONTERREY,6123,SUR,JOSE CONCHELO  LUIS URBINA 1921,UNIPOLAR,12.9,7.32,-100.2945633,25.6890656,"$30,187.50",,,RENTABLE,,
,MONTERREY,MONTERREY,6144,PONIENTE,DIAZ ORDAZ Y MANUEL CLOUTHIER I ,UNIPOLAR,12.9,7.32,-100.3937984,25.67419077,"$30,187.50",,,RENTABLE,,
,MONTERREY,MONTERREY,6145,ORIENTE,DIAZ ORDAZ Y MANUEL CLOUTHIER I ,UNIPOLAR,12.9,7.32,-100.3937984,25.67419077,"$30,187.50",,,RENTABLE,,
,MONTERREY,MONTERREY,6150,SUR,CUAUHTEMOC 732,AZOTEA,12.9,7.32,-100.3194486,25.66999036,"$38,640.00",,,RENTABLE,,
,MONTERREY,MONTERREY,6153,SUR,FIDEL VELAZQUEZ 710 A,BIPOLAR,26,7.2,-100.3200383,25.72965787,"$54,337.50",,,RENTABLE,,
,MONTERREY,MONTERREY,6155,SUR,FIDEL VELAZQUEZ  710 C,AUTOSOPORTADO,12.9,7.32,-100.3200383,25.72965787,"$21,735.00",,,RENTABLE,,
,MONTERREY,MONTERREY,6156,NORTE,FIDEL VELAZQUEZ Y MAR JONICO 4925A,AZOTEA,12.9,7.32,-100.3359693,25.72141912,"$33,810.00",,,RENTABLE,,
,MONTERREY,MONTERREY,6157,NORTE,FIDEL VELAZQUEZ Y MIGUEL ABASTA 1734,UNIPOLAR,12.9,7.32,-100.3331569,25.72243168,"$30,187.50",,,RENTABLE,,
,MONTERREY,MONTERREY,6158,SUR,FIDEL VELAZQUEZ Y MIGUEL ABASTA 1734,UNIPOLAR,12.9,7.32,-100.3331569,25.72243168,"$30,187.50",,,RENTABLE,,
,MONTERREY,MONTERREY,6163,PONIENTE,MORONES PRIETO Y AYUTLA HILARIO MARTINEZ  612,UNIPOLAR,12.9,7.32,-100.3042937,25.66285119,"$54,337.50",,,RENTABLE,,
,MONTERREY,MONTERREY,6165,PONIENTE,PASEO DE LOS LEONES Y MONTAÑA 2275,UNIPOLAR,12.9,7.32,-100.3750202,25.71042198,"$38,036.25",,,RENTABLE,,
,MONTERREY,MONTERREY,6166,ORIENTE,PASEO DE LOS LEONES Y MONTAÑA 2275,UNIPOLAR,12.9,7.32,-100.3750202,25.71042198,"$38,036.25",,,RENTABLE,,
,MONTERREY,MONTERREY,6169,NORTE,REVOLUCION 3633 SUR,AZOTEA,12.9,7.32,-100.2731571,25.64153173,"$33,810.00",,,RENTABLE,,
,MONTERREY,MONTERREY,6170,NORTE,REVOLUCION Y CHAPULTEPEC 1507,UNIPOLAR,12.9,7.32,-100.2845739,25.66742938,"$48,300.00",,,RENTABLE,,
,MONTERREY,MONTERREY,6171,SUR,REVOLUCION Y CHAPULTEPEC 1507,UNIPOLAR,12.9,7.32,-100.2845739,25.66742938,"$48,300.00",,,RENTABLE,,
,MONTERREY,MONTERREY,6196,NORTE,CONSTITUYENTES DEL 17 No.  1506,UNIPOLAR,12.9,7.32,-100.3275922,25.72460673,"$23,318.76",,,RENTABLE,,
,MONTERREY,MONTERREY,6197,SUR,CONSTITUYENTES DEL 17 No.  1506,UNIPOLAR,12.9,7.32,-100.3275922,25.72460673,"$30,187.50",,,RENTABLE,,
,MONTERREY,MONTERREY,6198,PONIENTE,ALFONSO REYES Y JULIO CAMELO S/N,UNIPOLAR,12.9,7.32,-100.2978101,25.63538749,"$36,225.00",,,RENTABLE,,
,MONTERREY,MONTERREY,6199,ORIENTE,ALFONSO REYES Y JULIO CAMELO S/N,UNIPOLAR,12.9,7.32,-100.2978101,25.63538749,"$36,225.00",,,RENTABLE,,
,MONTERREY,MONTERREY,6204,NORTE,16 DE SEPTIEMBRE Y TUNEL LOMA LARGA 2005,UNIPOLAR,12.9,7.32,-100.3355402,25.6654034,"$42,262.50",,,RENTABLE,,
,MONTERREY,MONTERREY,6205,SUR,16 DE SEPTIEMBRE Y TUNEL LOMA LARGA 2005,UNIPOLAR,12.9,7.32,-100.3355402,25.6654034,"$33,810.00",,,RENTABLE,,
,MONTERREY,MONTERREY,6206,NORTE,RIO NAZAS Y ALFOMBRILLAS 1626,UNIPOLAR,12.9,7.32,-100.306921,25.6390689,"$33,810.00",,,RENTABLE,,
,MONTERREY,MONTERREY,6207,SUR,RIO NAZAS Y ALFOMBRILLAS 1626,UNIPOLAR,12.9,7.32,-100.306921,25.6390689,"$33,810.00",,,RENTABLE,,
,MONTERREY,MONTERREY,6210,SUR,CUAUHTEMOC 747,AZOTEA,12.9,7.32,-100.3190912,25.66963704,"$36,225.00",,,RENTABLE,,
,MONTERREY,MONTERREY,6211,PONIENTE,ALFONSO REYES 3516,AZOTEA,12.9,7.32,-100.2901989,25.63632318,"$30,187.50",,,RENTABLE,,
,MONTERREY,MONTERREY,6213,PONIENTE,ALFONSO REYES  2900,UNIPOLAR,12.9,7.32,-100.2885429,25.6350645,"$42,262.50",,,RENTABLE,,
,MONTERREY,MONTERREY,6214,ORIENTE,ALFONSO REYES  2900,UNIPOLAR,12.9,7.32,-100.2885429,25.6350645,"$30,187.50",,,RENTABLE,,
,MONTERREY,MONTERREY,6215,PONIENTE,ABRAHAM LINCOLN 4962,UNIPOLAR,12.9,7.32,-100.3644523,25.72375243,"$38,640.00",,,RENTABLE,,
,MONTERREY,MONTERREY,6216,ORIENTE,ABRAHAM LINCOLN 4962,UNIPOLAR,12.9,7.32,-100.3644523,25.72375243,"$38,640.00",,,RENTABLE,,
,MONTERREY,MONTERREY,6245,ORIENTE,CONSTITUCION ESQ. DEGOLLADO 1531,UNIPOLAR,12.9,7.32,-100.3377385,25.66879734,"$48,300.00",,,RENTABLE,,
,MONTERREY,MONTERREY,6246,SUR,REVOLUCION Y J. CANTU LEAL 711,UNIPOLAR,12.9,7.32,-100.2840679,25.66417696,"$33,810.00",,,RENTABLE,,
,MONTERREY,MONTERREY,6247,PONIENTE,LINCOLN S/N,PUENTE PEATONAL,12.55,3.15,-100.3663391,25.72591446,"$48,300.00",,,RENTABLE,,
,MONTERREY,MONTERREY,6248,ORIENTE,LINCOLN S/N,PUENTE PEATONAL,12.55,3.15,-100.3663391,25.72591446,"$48,300.00",,,RENTABLE,,
,MONTERREY,MONTERREY,6253,PONIENTE,LINCOLN S/N,PUENTE PEATONAL,10,3.15,-100.3663391,25.72591446,"$48,300.00",,,RENTABLE,,
,MONTERREY,MONTERREY,6254,ORIENTE,LINCOLN S/N,PUENTE PEATONAL,10,3.15,-100.3663391,25.72591446,"$48,300.00",,,RENTABLE,,
,MONTERREY,MONTERREY,6257,PONIENTE,PASEO DE LOS LEONES ,PUENTE PEATONAL,21,3,-100.3756785,25.71054846,"$54,337.50",,,RENTABLE,,
,MONTERREY,MONTERREY,6258,ORIENTE,PASEO DE LOS LEONES ,PUENTE PEATONAL,21,3,-100.3756785,25.71054846,"$54,337.50",,,RENTABLE,,
,MONTERREY,MONTERREY,6259,NORTE,RANGEL FRIAS Y VIVIANO VILLARREAL ,PUENTE PEATONAL,19.5,3.15,-100.3658799,25.70990096,"$48,300.00",,,RENTABLE,,
,MONTERREY,MONTERREY,6260,SUR,RANGEL FRIAS Y VIVIANO VILLARREAL ,PUENTE PEATONAL,19.5,3.15,-100.3658799,25.70990096,"$48,300.00",,,RENTABLE,,
,MONTERREY,MONTERREY,6261,SUR,JOSE ELEUTERIO GONZALEZ 2705,AZOTEA,12.9,7.32,-100.3500305,25.70838093,"$42,262.50",,,RENTABLE,,
,MONTERREY,MONTERREY,6262,NORTE,REVOLUCION 3028,UNIPOLAR,12.9,7.32,-100.2766388,25.65176176,"$48,300.00",,,RENTABLE,,
,MONTERREY,MONTERREY,6263,SUR,REVOLUCION 3028,UNIPOLAR,12.9,7.32,-100.2766388,25.65176176,"$48,300.00",,,RENTABLE,,
,MONTERREY,MONTERREY,6264,NORTE,REVOLUCION Y COCOYOC 3549,AZOTEA,12.9,7.32,-100.2728445,25.63449806,"$22,264.00",,,RENTABLE,,
,MONTERREY,MONTERREY,6266,NORTE,AV. EUGENIO GARZA SADA  EL DIENTE 1896,UNIPOLAR,12.9,7.32,-100.2710402,25.62106491,"$18,112.50",,,RENTABLE,,
,MONTERREY,MONTERREY,6267,SUR,AV. EUGENIO GARZA SADA  EL DIENTE 1896,UNIPOLAR,12.9,7.32,-100.2710402,25.62106491,"$48,300.00",,,RENTABLE,,
,MONTERREY,MONTERREY,6273,NORTE,EUGENIO GARZA SADA 1363,AZOTEA,12.9,7.32,-100.2969994,25.66413872,"$33,810.00",,,RENTABLE,,
,MONTERREY,MONTERREY,6274,SUR,EUGENIO GARZA SADA 1363,AZOTEA,12.9,7.32,-100.2969994,25.66413872,"$33,810.00",,,RENTABLE,,
,MONTERREY,MONTERREY,6280,NORTE,REVOLUCION  ALFA 372,UNIPOLAR,12.9,7.32,-100.2748065,25.64473388,"$38,640.00",,,RENTABLE,,
,MONTERREY,MONTERREY,6281,SUR,REVOLUCION  ALFA 372,UNIPOLAR,12.9,7.32,-100.2748065,25.64473388,"$38,640.00",,,RENTABLE,,
,MONTERREY,MONTERREY,6282,PONIENTE,FRANCISCO I. MADERO ORIENTE 1145,AZOTEA,12.9,7.32,-100.303049,25.6830556,"$33,810.00",,,RENTABLE,,
,MONTERREY,MONTERREY,6283,ORIENTE,PASEO DE LOS LEONES 300,UNIPOLAR,12.9,7.32,-100.3542003,25.69725021,"$48,300.00",,,RENTABLE,,
,MONTERREY,MONTERREY,6284,PONIENTE,PASEO DE LOS LEONES 300,UNIPOLAR,12.9,7.32,-100.3542003,25.69725021,"$48,300.00",,,RENTABLE,,
,MONTERREY,MONTERREY,6285,PONIENTE,LAZARO CARDENAS Y CERRO DE LA SILLA S/N,UNIPOLAR,12.9,7.32,-100.2942084,25.62614701,"$36,225.00",,,RENTABLE,,
,MONTERREY,MONTERREY,6286,ORIENTE,LAZARO CARDENAS Y CERRO DE LA SILLA S/N,UNIPOLAR,12.9,7.32,-100.2942084,25.62614701,"$36,225.00",,,RENTABLE,,
,MONTERREY,MONTERREY,6287,PONIENTE,LAZARO CARDENAS  RIO NAZAS  1329,UNIPOLAR,12.9,7.32,-100.3097781,25.63701018,"$50,715.00",,,RENTABLE,,
,MONTERREY,MONTERREY,6288,ORIENTE,LAZARO CARDENAS  RIO NAZAS  1329,UNIPOLAR,12.9,7.32,-100.3097781,25.63701018,"$50,715.00",,,RENTABLE,,
,MONTERREY,MONTERREY,6291,PONIENTE,CONSTITUCION ORIENTE Y CONSTITUYENTES S/N,UNIPOLAR,12.9,7.32,-100.2634196,25.68304188,"$24,546.06",,,RENTABLE,,
,MONTERREY,MONTERREY,6292,ORIENTE,CONSTITUCION ORIENTE Y CONSTITUYENTES S/N,UNIPOLAR,12.9,7.32,-100.2634196,25.68304188,"$48,300.00",,,RENTABLE,,
,MONTERREY,MONTERREY,6293,SUR,FIDEL VELAZQUEZ  NO ME OLVIDES 964,AZOTEA,12.9,7.32,-100.3232229,25.72548204,"$25,300.00",,,RENTABLE,,
,MONTERREY,MONTERREY,6296,PONIENTE,PASEO DE LOS LEONES  Y CRISTOBAL GUERRA 2988,UNIPOLAR,12.9,7.32,-100.3931513,25.72254945,"$48,300.00",,,RENTABLE,,
,MONTERREY,MONTERREY,6297,ORIENTE,PASEO DE LOS LEONES  Y CRISTOBAL GUERRA 2988,UNIPOLAR,12.9,7.32,-100.3931513,25.72254945,"$48,300.00",,,RENTABLE,,
,MONTERREY,MONTERREY,6301,PONIENTE,PASEO DE LOS LEONES 2935,UNIPOLAR,12.9,7.32,-100.3896462,25.72161055,"$48,300.00",,,RENTABLE,,
,MONTERREY,MONTERREY,6302,ORIENTE,PASEO DE LOS LEONES 2935,UNIPOLAR,12.9,7.32,-100.3896462,25.72161055,"$38,036.25",,,RENTABLE,,
,MONTERREY,MONTERREY,6303,ORIENTE,FRESADOR 3401,UNIPOLAR,12.9,7.32,-100.2992396,25.63368043,"$41,839.88",,,RENTABLE,,
,MONTERREY,MONTERREY,6304,PONIENTE,FRESADOR 3401,UNIPOLAR,12.9,7.32,-100.2992396,25.63368043,"$25,731.52",,,RENTABLE,,
,MONTERREY,MONTERREY,6305,NORTE,ALFONSO REYES Y CALZ. VICTORIA 1701,AZOTEA,12.9,7.32,-100.3162925,25.6899248,"$33,810.00",,,RENTABLE,,
,MONTERREY,MONTERREY,6306,SUR,ALFONSO REYES Y CALZ. VICTORIA 1701,AZOTEA,12.9,7.32,-100.3162925,25.6899248,"$33,810.00",,,RENTABLE,,
,MONTERREY,MONTERREY,6307,NORTE,ROGELIO CANTU GOMEZ  S/N,UNIPOLAR,12.9,7.32,-100.3772815,25.6810069,"$44,375.63",,,RENTABLE,,
,MONTERREY,MONTERREY,6308,SUR,ROGELIO CANTU GOMEZ  S/N,UNIPOLAR,12.9,7.32,-100.3772815,25.6810069,"$44,375.63",,,RENTABLE,,
,MONTERREY,MONTERREY,6309,NORTE,ROGELIO CANTU GOMEZ S/N,UNIPOLAR,12.9,7.32,-100.3775815,25.68226861,"$44,375.63",,,RENTABLE,,
,MONTERREY,MONTERREY,6310,SUR,ROGELIO CANTU GOMEZ S/N,UNIPOLAR,12.9,7.32,-100.3775815,25.68226861,"$44,375.63",,,RENTABLE,,
,MONTERREY,MONTERREY,6311,NORTE,ROGELIO CANTU COMEZ S/N,AUTOSOPORTADO,12.9,7.32,-100.3774861,25.68196082,"$38,036.25",,,RENTABLE,,
,MONTERREY,MONTERREY,6312,SUR,ROGELIO CANTU COMEZ S/N,AUTOSOPORTADO,12.9,7.32,-100.3774861,25.68196082,"$38,036.25",,,RENTABLE,,
,MONTERREY,MONTERREY,6324,NORTE,EUGENIO GARZA SADA 5117,UNIPOLAR,12.9,9,-100.2709857,25.61382576,"$72,450.00",,,RENTABLE,,
,MONTERREY,MONTERREY,6348,SUR,REVOLUCION Y COCOYOC 3549,AZOTEA,12.9,7.32,-100.2728445,25.63449806,"$21,150.80",,,RENTABLE,,
,MONTERREY,MONTERREY,6033,SUR,F. VELAZQUEZ Y PLAYA 501,UNIPOLAR,12.9,7.32,-100.3459371,25.7174064,"$63,250.00",,,RENTABLE,,
,MONTERREY,MONTERREY,6034,NORTE,F. VELAZQUEZ Y PLAYA 501,UNIPOLAR,12.9,7.32,-100.3459371,25.7174064,"$63,250.00",,,RENTABLE,,
,MONTERREY,MONTERREY,6313,NORTE,VENUSTIANO CARRANZA  S/N,UNIPOLAR,12.2,7.32,-100.3331518,25.67291718,"$48,300.00",,,RENTABLE,,
,MONTERREY,MONTERREY,6314,SUR,VENUSTIANO CARRANZA  S/N,UNIPOLAR,12.2,7.32,-100.3331518,25.67291718,"$24,546.06",,,RENTABLE,,
,MONTERREY,SAN NICOLAS DE LOS GARZA,6120,ORIENTE,FELIX GALVAN  101,UNIPOLAR,12.9,7.32,-100.2148579,25.72465797,"$42,262.50",,,RENTABLE,,
,MONTERREY,SAN NICOLAS DE LOS GARZA,6121,PONIENTE,FELIX GALVAN  101,UNIPOLAR,12.9,7.32,-100.2148579,25.72465797,"$42,262.50",,,RENTABLE,,
,MONTERREY,SANTA CATARINA,6184,PONIENTE,BLVD. DIAZ ORDAZ 111-G,UNIPOLAR,12.9,7.32,-100.4326026,25.67471302,"$20,240.00",,,RENTABLE,,
,MONTERREY,SANTA CATARINA,6185,ORIENTE,BLVD. DIAZ ORDAZ 111-G,UNIPOLAR,12.9,7.32,-100.4326026,25.67471302,"$21,217.50",,,RENTABLE,,
,PUEBLA,PUEBLA,04972-E01,,PROLONGACION 11 SUR #11715 SAN FRANCISCO MAYORAZGO,UNIPOLAR,12.9,7.32,-98.24744658,18.98915237,"$31,696.88",,,RENTABLE,,
,PUEBLA,PUEBLA,04972-E02,ORIENTE,PROLONGACION 11 SUR #11715 SAN FRANCISCO MAYORAZGO,UNIPOLAR,12.9,7.32,-98.24744658,18.98915237,"$31,696.88",,,RENTABLE,,
,PUEBLA,PUEBLA,3005,PONIENTE,BLVD. NORTE 2302 ESQ. HEROES DE NACOZARI,UNIPOLAR,12.9,7.32,-98.19714117,19.0739332,"$26,625.38",,,RENTABLE,,
,PUEBLA,PUEBLA,3006,ORIENTE,BLVD. NORTE 2302 ESQ. HEROES DE NACOZARI,UNIPOLAR,12.9,7.32,-98.19714117,19.0739332,"$26,625.38",,,RENTABLE,,
,PUEBLA,PUEBLA,3010,NORTE,DIAGONAL DEFENSORES DE LA REPUBLICA 627,UNIPOLAR,12.9,7.32,-98.19152842,19.06535473,"$26,625.38",,,RENTABLE,,
,PUEBLA,PUEBLA,3013,NORTE,PROLONGACION 11 SUR 5118-A,UNIPOLAR,12.9,7.32,-98.22097249,19.02669763,"$26,625.38",,,RENTABLE,,
,PUEBLA,PUEBLA,3014,ORIENTE,DIAGONAL DEFENSORES DE LA REPUBLICA 893 (894),UNIPOLAR,12.9,7.32,-98.18022744,19.06469479,"$26,625.38",,,RENTABLE,,
,PUEBLA,PUEBLA,3017,PONIENTE,DIAGONAL DEFENSORES DE LA REPUBLICA 448 - 452,UNIPOLAR,12.9,7.32,-98.19790415,19.06319742,"$25,294.11",,,RENTABLE,,
,PUEBLA,PUEBLA,3030,SUR,CARRETERA ATLIXCO - PUEBLA KM. 3.5 L. 84,UNIPOLAR,12.9,7.32,-98.25233764,19.03652571,"$26,625.38",,,RENTABLE,,
,PUEBLA,PUEBLA,3033,NORTE,49 SUR L. 68 MZ. 14,UNIPOLAR,12.9,9,-98.2375786,19.05469872,"$26,625.38",,,RENTABLE,,
,PUEBLA,PUEBLA,3034,SUR,49 SUR L. 68 MZ. 14,UNIPOLAR,12.9,9,-98.2375786,19.05469872,"$26,625.38",,,RENTABLE,,
,PUEBLA,PUEBLA,3035,NORTE,21 PTE. ESQ. BLVD. DE VIA SAN JUAN S/N,UNIPOLAR,12.9,11,-98.23798248,19.0547223,"$42,262.50",,,RENTABLE,,
,PUEBLA,PUEBLA,3036,SUR,21 PTE. ESQ. BLVD. DE VIA SAN JUAN S/N,UNIPOLAR,12.9,11,-98.23798248,19.0547223,"$26,498.59",,,RENTABLE,,
,PUEBLA,PUEBLA,3039,SUR,CARR- PUEBLA STA. ANA KM. 14.5,UNIPOLAR,12.9,7.32,-98.1932974,19.18584009,"$24,089.63",,,RENTABLE,,
,PUEBLA,PUEBLA,3040,NORTE,CARR- PUEBLA STA. ANA KM. 14.5,UNIPOLAR,12.9,7.32,-98.1932974,19.18584009,"$25,357.50",,,RENTABLE,,
,PUEBLA,PUEBLA,3041,PONIENTE,PRIVADA MORELOS 19,UNIPOLAR,12.9,7.32,-98.21775637,19.08929342,"$24,089.63",,,RENTABLE,,
,PUEBLA,PUEBLA,3042,ORIENTE,PRIVADA MORELOS 19,UNIPOLAR,12.9,7.32,-98.21775637,19.08929342,"$25,357.50",,,RENTABLE,,
,PUEBLA,PUEBLA,3045,PONIENTE,AUTOPISTA MEXICO-PUEBLA PRIVADA JALISCO 8,AUTOSOPORTADO,12.9,7.32,-98.47434281,19.29509686,"$14,453.78",,,RENTABLE,,
,PUEBLA,PUEBLA,3046,ORIENTE,AUTOPISTA MEXICO-PUEBLA PRIVADA JALISCO 8,AUTOSOPORTADO,12.9,7.32,-98.47434281,19.29509686,"$19,018.13",,,RENTABLE,,
,PUEBLA,PUEBLA,3075,NORTE,BLVD. NIÑO POBLANO ESQ. RETORNO NIÑOS HEROES 1,UNIPOLAR,12.9,9,-98.24585091,19.03631583,"$27,703.07",,,RENTABLE,,
,PUEBLA,PUEBLA,3081,NORTE,PROLONGACION 24 SUR 5133,UNIPOLAR,12.9,7.32,-98.19306062,19.01413064,"$36,134.44",,,RENTABLE,,
,PUEBLA,PUEBLA,3082,SUR,PROLONGACION 24 SUR 5133,UNIPOLAR,12.9,7.32,-98.19306062,19.01413064,"$38,036.25",,,RENTABLE,,
,PUEBLA,PUEBLA,3089,NORTE,6 PONIENTE 2918,UNIPOLAR,12.9,7.32,-98.21884025,19.05853199,"$26,565.00",,,RENTABLE,,
,PUEBLA,PUEBLA,3090,SUR,6 PONIENTE 2918,UNIPOLAR,12.9,7.32,-98.21884025,19.05853199,"$26,565.00",,,RENTABLE,,
,PUEBLA,PUEBLA,3131,PONIENTE,DE LAS TORRES S/N,UNIPOLAR,12.9,7.32,-98.23752543,19.00480304,"$26,498.59",,,RENTABLE,,
,PUEBLA,PUEBLA,3132,ORIENTE,DE LAS TORRES S/N,UNIPOLAR,12.9,7.32,-98.23752543,19.00480304,"$27,893.25",,,RENTABLE,,
,PUEBLA,PUEBLA,3158,NORTE,BLVD. VIA SAN JUAN 45 SUR 3105,UNIPOLAR,12.9,7.32,-98.23866685,19.04911572,"$31,696.88",,,RENTABLE,,
,PUEBLA,PUEBLA,3159,NORTE,CARRETERA ATLIXCO - PUEBLA KM. 3.5 L. 84,UNIPOLAR,12.9,7.32,-98.25233764,19.03652571,"$26,625.38",,,RENTABLE,,
,PUEBLA,PUEBLA,3160,PONIENTE,PERIFERICO Y 16 DE SEPTIEMBRE 111 B ORIENTE 13,UNIPOLAR,12.9,11,-98.23051008,18.98467148,"$26,498.59",,,RENTABLE,,
,PUEBLA,PUEBLA,3161,ORIENTE,PERIFERICO Y 16 DE SEPTIEMBRE 111 B ORIENTE 13,UNIPOLAR,12.9,11,-98.23051008,18.98467148,"$26,498.59",,,RENTABLE,,
,PUEBLA,PUEBLA,3168,NORTE,PROL 11 SUR 8314,UNIPOLAR,12.9,11,-98.2378121,19.00541795,"$35,500.50",,,RENTABLE,,
,PUEBLA,PUEBLA,3169,SUR,PROL 11 SUR 8314,UNIPOLAR,12.9,11,-98.2378121,19.00541795,"$35,500.50",,,RENTABLE,,
,PUEBLA,PUEBLA,3192,SUR,DIAGONAL DEFENSORES DE LA REPUBLICA 627,UNIPOLAR,12.9,7.32,-98.19149491,19.06531108,"$26,625.38",,,RENTABLE,,
,PUEBLA,PUEBLA,3193,SUR,PROLONGACION 11 SUR 5118-A,UNIPOLAR,12.9,7.32,-98.22091822,19.02663068,"$26,625.38",,,RENTABLE,,
,PUEBLA,PUEBLA,3194,NORTE,PROL. 16  DE SEPTIEMBRE 9905,UNIPOLAR,12.9,7.32,-98.22635768,18.9946264,"$26,625.38",,,RENTABLE,,
,PUEBLA,PUEBLA,3195,SUR,PROL. 16  DE SEPTIEMBRE 9905,UNIPOLAR,12.9,7.32,-98.22635768,18.9946264,"$26,625.38",,,RENTABLE,,
,PUEBLA,PUEBLA,3196,NORTE,PROL. 24 SUR 9319,UNIPOLAR,12.9,7.32,-98.19727844,18.97656991,"$25,357.50",,,RENTABLE,,
,PUEBLA,PUEBLA,3197,SUR,PROL. 24 SUR 9319,UNIPOLAR,12.9,7.32,-98.19727844,18.97656991,"$25,357.50",,,RENTABLE,,
,PUEBLA,PUEBLA,3198,NORTE,MUNICIPIO LIBRE 580,UNIPOLAR,12.9,7.32,-98.23219137,19.00275245,"$26,625.38",,,RENTABLE,,
,PUEBLA,PUEBLA,3199,SUR,MUNICIPIO LIBRE 580,UNIPOLAR,12.9,7.32,-98.23219137,19.00275245,"$26,625.38",,,RENTABLE,,
,PUEBLA,PUEBLA,3202,NORTE,MUNICIPIO LIBRE 1041,UNIPOLAR,12.9,7.32,-98.21331396,18.99408276,"$26,625.38",,,RENTABLE,,
,PUEBLA,PUEBLA,3203,SUR,MUNICIPIO LIBRE 1041,UNIPOLAR,12.9,7.32,-98.21331396,18.99408276,"$26,625.38",,,RENTABLE,,
,PUEBLA,PUEBLA,3204,PONIENTE,DIAGONAL DEFENSORES DE LA REPUBLICA 893 (894),UNIPOLAR,12.9,7.32,-98.18022744,19.06469479,"$26,625.38",,,RENTABLE,,
,PUEBLA,PUEBLA,3205,Oriente,DIAGONAL DEFENSORES DE LA REPUBLICA 448 - 452,UNIPOLAR,12.9,7.32,-98.19790415,19.06319743,"$25,294.11",,,RENTABLE,,
,PUEBLA,PUEBLA,3206,NORTE,ADOLFO LOPEZ MATEOS 1,UNIPOLAR,12.9,7.32,-98.19545105,18.99627976,"$24,150.00",,,RENTABLE,,
,PUEBLA,PUEBLA,3207,SUR,ADOLFO LOPEZ MATEOS 1,UNIPOLAR,12.9,7.32,-98.19545105,18.99627976,"$24,150.00",,,RENTABLE,,
,PUEBLA,PUEBLA,3210,NORTE,KM. 6.5 CARRETERA FEDERAL PUEBLA TLAXCALA 10665,UNIPOLAR,12.9,7.32,-98.20748112,19.09647997,"$24,089.63",,,RENTABLE,,
,PUEBLA,PUEBLA,3211,SUR,KM. 6.5 CARRETERA FEDERAL PUEBLA TLAXCALA 10665,UNIPOLAR,12.9,7.32,-98.20748112,19.09647997,"$24,089.63",,,RENTABLE,,
,PUEBLA,PUEBLA,3212,NORTE,2 PONIENTE 2508 - B,UNIPOLAR,12.9,7.32,-98.21662762,19.05510217,"$27,893.25",,,RENTABLE,,
,PUEBLA,PUEBLA,3213,SUR,2 PONIENTE 2508 - B,UNIPOLAR,12.9,7.32,-98.21662762,19.05510217,"$27,893.25",,,RENTABLE,,
,PUEBLA,PUEBLA,3216,NORTE,PROLONGACION 14 SUR 6342,UNIPOLAR,12.9,7.32,-98.20788128,19.00234,"$26,625.38",,,RENTABLE,,
,PUEBLA,PUEBLA,3217,SUR,PROLONGACION 14 SUR 6342,UNIPOLAR,12.9,7.32,-98.20788128,19.00234,"$26,625.38",,,RENTABLE,,
,PUEBLA,PUEBLA,3218,NORTE,PROLONGACION 14 SUR 10307,UNIPOLAR,12.9,7.32,-98.21676428,18.98598678,"$26,625.38",,,RENTABLE,,
,PUEBLA,PUEBLA,3219,SUR,PROLONGACION 14 SUR 10307,UNIPOLAR,12.9,7.32,-98.21676428,18.98598678,"$26,625.38",,,RENTABLE,,
,PUEBLA,PUEBLA,3220,NORTE,PROL. 16 DE SEPTIEMBRE 10539,UNIPOLAR,12.9,7.32,-98.22917273,18.98938937,"$31,696.88",,,RENTABLE,,
,PUEBLA,PUEBLA,3221,SUR,PROL. 16 DE SEPTIEMBRE 10539,UNIPOLAR,12.9,7.32,-98.22917273,18.98938937,"$26,625.38",,,RENTABLE,,
,PUEBLA,PUEBLA,3222,PONIENTE,BLVD. XONACA 2845,UNIPOLAR,7.5,12.9,-98.17600998,19.04596441,"$26,625.38",,,RENTABLE,,
,PUEBLA,PUEBLA,3223,ORIENTE,BLVD. XONACA 2845,UNIPOLAR,7.5,12.9,-98.17600998,19.04596441,"$26,625.38",,,RENTABLE,,
,PUEBLA,PUEBLA,3224,NORTE,PROL. 16 DE SEPTIEMBRE 8917,UNIPOLAR,12.9,7.32,-98.22512647,18.99678639,"$26,625.38",,,RENTABLE,,
,PUEBLA,PUEBLA,3225,SUR,PROL. 16 DE SEPTIEMBRE 8917,UNIPOLAR,12.9,7.32,-98.22512647,18.99678639,"$26,625.38",,,RENTABLE,,
,PUEBLA,PUEBLA,3226,ORIENTE,25 ORIENTE 207,UNIPOLAR,12.9,7.32,-98.20198448,19.034043,"$26,625.38",,,RENTABLE,,
,PUEBLA,PUEBLA,3227,NORTE,ESTEBAN DE ANTUÑANO 606,UNIPOLAR,12.9,7.32,-98.23900105,19.07722261,"$26,625.38",,,RENTABLE,,
,PUEBLA,PUEBLA,3228,SUR,ESTEBAN DE ANTUÑANO 606,UNIPOLAR,12.9,7.32,-98.23900105,19.07722261,"$26,625.38",,,RENTABLE,,
,PUEBLA,PUEBLA,3231,NORTE,14 SUR 5110,UNIPOLAR,12.9,7.32,-98.19963923,19.01925012,"$26,625.38",,,RENTABLE,,
,PUEBLA,PUEBLA,3232,SUR,14 SUR 5110,UNIPOLAR,12.9,7.32,-98.19963923,19.01925012,"$26,625.38",,,RENTABLE,,
,PUEBLA,PUEBLA,3235,NORTE,BLVD. CLUB DE GOLF 8104,UNIPOLAR,12.9,7.32,-98.23637496,19.00812229,"$26,625.38",,,RENTABLE,,
,PUEBLA,PUEBLA,3236,SUR,BLVD. CLUB DE GOLF 8104,UNIPOLAR,12.9,7.32,-98.23637496,19.00812229,"$25,294.11",,,RENTABLE,,
,PUEBLA,PUEBLA,3237,PONIENTE,AVENIDA 2 PONIENTE 2920,UNIPOLAR,7.5,12.9,-98.2197977,19.05732991,"$29,161.13",,,RENTABLE,,
,PUEBLA,PUEBLA,3238,ORIENTE,AVENIDA 2 PONIENTE 2920,UNIPOLAR,7.5,12.9,-98.2197977,19.05732991,"$27,703.07",,,RENTABLE,,
,PUEBLA,PUEBLA,3239,PONIENTE,DIAGONAL DEFENSORES DE LA REPUBLICA 297,UNIPOLAR,12.9,7.32,-98.20691856,19.06025754,"$26,625.38",,,RENTABLE,,
,PUEBLA,PUEBLA,3240,ORIENTE,DIAGONAL DEFENSORES DE LA REPUBLICA 297,UNIPOLAR,12.9,7.32,-98.20691856,19.06025754,"$26,625.38",,,RENTABLE,,
,PUEBLA,PUEBLA,3241,NORTE,AVENIDA 16 DE SEPTIEMBRE 11518,UNIPOLAR,12.9,7.32,-98.23265759,18.98229331,"$25,357.50",,,RENTABLE,,
,PUEBLA,PUEBLA,3242,SUR,AVENIDA 16 DE SEPTIEMBRE 11518,UNIPOLAR,12.9,7.32,-98.23265759,18.98229331,"$25,357.50",,,RENTABLE,,
,PUEBLA,PUEBLA,3243,PONIENTE,3 DE MAYO 217 - 3,UNIPOLAR,12.9,7.32,-98.21112609,19.0181998,"$26,625.38",,,RENTABLE,,
,PUEBLA,PUEBLA,3244,ORIENTE,3 DE MAYO 217 - 3,UNIPOLAR,12.9,7.32,-98.21112609,19.0181998,"$26,625.38",,,RENTABLE,,
,PUEBLA,PUEBLA,3245,PONIENTE,CAMINO ANTIGUO NACIONAL 93,UNIPOLAR,12.9,7.32,-98.28270214,19.14552763,"$25,357.50",,,RENTABLE,,
,PUEBLA,PUEBLA,3246,ORIENTE,CAMINO ANTIGUO NACIONAL 93,UNIPOLAR,12.9,7.32,-98.28270214,19.14552763,"$24,089.63",,,RENTABLE,,
,PUEBLA,PUEBLA,3249,NORTE,BLVD. NORTE 3603,UNIPOLAR,12.9,7.32,-98.20792485,19.07035586,"$26,625.38",,,RENTABLE,,
,PUEBLA,PUEBLA,3250,SUR,BLVD. NORTE 3603,UNIPOLAR,12.9,7.32,-98.20792485,19.07035586,"$25,294.11",,,RENTABLE,,
,PUEBLA,PUEBLA,3071,PONIENTE,RECTA A CHOLULA 8103,UNIPOLAR,12.9,7.32,-98.251193,19.059182,"$24,035.00",,,RENTABLE,,
,PUEBLA,PUEBLA,3072,ORIENTE,RECTA A CHOLULA 8103,UNIPOLAR,12.9,7.32,-98.251193,19.059182,"$25,300.00",,,RENTABLE,,
,PUEBLA,PUEBLA,3253,NORTE,REFUGIO RODRIGUEZ NORTE 22 A,UNIPOLAR,12.9,7.32,-98.204208,19.086311,"$29,161.13",,,RENTABLE,,
,PUEBLA,PUEBLA,3254,SUR,REFUGIO RODRIGUEZ NORTE 22 A,UNIPOLAR,12.9,7.32,-98.204208,19.086311,"$29,161.13",,,RENTABLE,,
,PUEBLA,PUEBLA,3255,,PROLONGACION 11 SUR  NO.30  HAB 105 PTE Y TARASCOS,UNIPOLAR,12.9,7.32,-98.2397375,19.0010075,"$32,602.50",,,RENTABLE,,
,PUEBLA,PUEBLA,3256,,PROLONGACION 11 SUR  NO.30  HAB 105 PTE Y TARASCOS,UNIPOLAR,12.9,7.32,-98.2397375,19.0010075,"$32,602.50",,,RENTABLE,,
,PUEBLA,PUEBLA,3257,ORIENTE,31 PONIENTE 2318,UNIPOLAR,12.9,7.32,-98.222511,19.041637,"$28,750.00",,,RENTABLE,,
,PUEBLA,PUEBLA,3258,PONIENTE,31 PONIENTE 2318,UNIPOLAR,12.9,7.32,-98.222511,19.041637,"$43,700.00",,,RENTABLE,,
,PUEBLA,SAN ANDRES CHOLULA,3251,NORTE,16 DE SEP CALLE PROF ALBERTO MIRANDA CASTRO 6A,UNIPOLAR,12.9,7.32,-98.24039258,18.96663241,"$25,357.50",,,RENTABLE,,
,PUEBLA,SAN ANDRES CHOLULA,3252,SUR,16 DE SEP CALLE PROF ALBERTO MIRANDA CASTRO 6A,UNIPOLAR,12.9,7.32,-98.24039258,18.96663241,"$25,357.50",,,RENTABLE,,
,QUERETARO,CARRILLO PUERTO,13061,ORIENTE,CARRETERA A TLACOTE 420  ESQ. 5 DE FEBRERO ,UNIPOLAR,12,4,-100.4201472,20.58831476,"$18,067.22",,,RENTABLE,,
,QUERETARO,CARRILLO PUERTO,13062,PONIENTE,CARRETERA A TLACOTE 420  ESQ. 5 DE FEBRERO ,UNIPOLAR,12,4,-100.4201472,20.58831476,"$18,067.22",,,RENTABLE,,
,QUERETARO,COLON,13150,ORIENTE,CARR. BERNAL CADEREYTA (ESTATAL No. 100) S/N,UNIPOLAR,12.9,7.32,-100.1822382,20.59351923,"$20,476.18",,,RENTABLE,,
,QUERETARO,COLON,13151,PONIENTE,CARR. BERNAL CADEREYTA (ESTATAL No. 100) S/N,UNIPOLAR,12.9,7.32,-100.1822382,20.59351923,"$20,476.18",,,RENTABLE,,
,QUERETARO,CORREGIDORA,13029,ORIENTE,PASEO CONSTITUYENTES KM. 3.5,UNIPOLAR,12.9,7.32,-100.4220952,20.55251029,"$36,225.00",,,RENTABLE,,
,QUERETARO,CORREGIDORA,13030,PONIENTE,PASEO CONSTITUYENTES KM. 3.5,UNIPOLAR,12.9,7.32,-100.4220952,20.55251029,"$29,161.13",,,RENTABLE,,
,QUERETARO,CORREGIDORA,13071,PONIENTE,PASEO CONSTITUYENTES 74 PTE.,UNIPOLAR,12.9,7.32,-100.4153569,20.56068314,"$29,161.13",,,RENTABLE,,
,QUERETARO,CORREGIDORA,13072,ORIENTE,PASEO CONSTITUYENTES 74 PTE.,UNIPOLAR,12.9,7.32,-100.4153569,20.56068314,"$25,357.50",,,RENTABLE,,
,QUERETARO,CORREGIDORA,13075,PONIENTE,PASEO CONSTITUYENTES FRAY NICOLAS DE ZAMORA 10,UNIPOLAR,7.93,7.63,-100.4368988,20.53528704,"$20,476.18",,,RENTABLE,,
,QUERETARO,CORREGIDORA,13076,ORIENTE,PASEO CONSTITUYENTES FRAY NICOLAS DE ZAMORA 10,UNIPOLAR,7.93,7.63,-100.4368988,20.53528704,"$20,476.18",,,RENTABLE,,
,QUERETARO,CORREGIDORA,13121,SUR,PASEO CONSTITUYENTES 1455,UNIPOLAR,12.9,7.32,-100.4315762,20.54099166,"$29,161.13",,,RENTABLE,,
,QUERETARO,CORREGIDORA,13122,PONIENTE,PASEO CONSTITUYENTES 1455,UNIPOLAR,12.9,7.32,-100.4315762,20.54099166,"$29,161.13",,,RENTABLE,,
,QUERETARO,CORREGIDORA,13127,ORIENTE,CONSTITUYENTES S/N,UNIPOLAR,12.9,7.32,-100.4228524,20.551582,"$21,553.88",,,RENTABLE,,
,QUERETARO,CORREGIDORA,13128,PONIENTE,CONSTITUYENTES S/N,UNIPOLAR,12.9,7.32,-100.4228524,20.551582,"$25,357.50",,,RENTABLE,,
,QUERETARO,CORREGIDORA,13146,ORIENTE,PASEO CONSTITUYENTES S/N,UNIPOLAR,10,6,-100.439086,20.53301089,"$21,553.88",,,RENTABLE,,
,QUERETARO,CORREGIDORA,13147,PONIENTE,PASEO CONSTITUYENTES S/N,UNIPOLAR,10,6,-100.439086,20.53301089,"$30,112.03",,,RENTABLE,,
,QUERETARO,CORREGIDORA,13148,ORIENTE,PASEO CONSTITUYENTES ESQ. JOSEFA ORTIZ DE DOMINGUEZ S/N,UNIPOLAR,11.27,7.32,-100.4321715,20.54128599,"$21,553.88",,,RENTABLE,,
,QUERETARO,CORREGIDORA,13149,PONIENTE,PASEO CONSTITUYENTES ESQ. JOSEFA ORTIZ DE DOMINGUEZ S/N,UNIPOLAR,11.27,7.32,-100.4321715,20.54128599,"$20,476.18",,,RENTABLE,,
,QUERETARO,CORREGIDORA,13152,ORIENTE,PASEO CONSTITUYENTES 1827,UNIPOLAR,12.9,7.32,-100.4444469,20.53209607,"$21,553.88",,,RENTABLE,,
,QUERETARO,CORREGIDORA,13153,PONIENTE,PASEO CONSTITUYENTES 1827,UNIPOLAR,12.9,7.32,-100.4444469,20.53209607,"$21,553.88",,,RENTABLE,,
,QUERETARO,CORREGIDORA,13161,PONIENTE,CARRETERA LIBRE A CELAYA KM. 11.8,UNIPOLAR,12.9,7.32,-100.4887968,20.5372484,"$20,476.18",,,RENTABLE,,
,QUERETARO,CORREGIDORA,13162,ORIENTE,CARRETERA LIBRE A CELAYA KM. 11.8,UNIPOLAR,12.9,7.32,-100.4887968,20.5372484,"$20,476.18",,,RENTABLE,,
,QUERETARO,CORREGIDORA,13165,PONIENTE,CARRETERA LIBRE A CELAYA EL ROMERAL KM. 13.8,UNIPOLAR,12.9,7.32,-100.5067836,20.53165497,"$20,476.18",,,RENTABLE,,
,QUERETARO,CORREGIDORA,13166,ORIENTE,CARRETERA LIBRE A CELAYA EL ROMERAL KM. 13.8,UNIPOLAR,12.9,7.32,-100.5067836,20.53165497,"$20,476.18",,,RENTABLE,,
,QUERETARO,CORREGIDORA,13167,PONIENTE,CARRETERA LIBRE A CELAYA KM 6.5,UNIPOLAR,12.9,7.32,-100.439496,20.53226294,"$20,476.18",,,RENTABLE,,
,QUERETARO,CORREGIDORA,13168,ORIENTE,CARRETERA LIBRE A CELAYA KM 6.5,UNIPOLAR,12.9,7.32,-100.439496,20.53226294,"$20,476.18",,,RENTABLE,,
,QUERETARO,CORREGIDORA,13176,ORIENTE,AUTOPISTA QUERETARO - CELAYA (BUGAMBILIAS NO. 206),UNIPOLAR,12,8,-100.4093393,20.5769319,"$29,161.13",,,RENTABLE,,
,QUERETARO,CORREGIDORA,13177,PONIENTE,AUTOPISTA QUERETARO - CELAYA (BUGAMBILIAS NO. 206),UNIPOLAR,12,8,-100.4093393,20.5769319,"$29,161.13",,,RENTABLE,,
,QUERETARO,CORREGIDORA,13178,PONIENTE,IGNACIO ZARAGOZA 1002,UNIPOLAR,12,8,-100.4097259,20.5805218,"$25,357.50",,,RENTABLE,,
,QUERETARO,EL MARQUES,13009,SUR,AUTOPISTA MEXICO-QRO. KM. 200 EL CARMEN ,UNIPOLAR,12.9,7.32,-100.281739,20.57175376,"$21,553.88",,,RENTABLE,,
,QUERETARO,EL MARQUES,13010,NORTE,AUTOPISTA MEXICO-QRO. KM. 200 EL CARMEN ,UNIPOLAR,12.9,7.32,-100.281739,20.57175376,"$20,476.18",,,RENTABLE,,
,QUERETARO,EL MARQUES,13084,ORIENTE,CARR. BERNAL CADEREYTA KM. 1,UNIPOLAR,12.9,7.32,-100.219838,20.56345097,"$20,476.18",,,RENTABLE,,
,QUERETARO,EL MARQUES,13085,PONIENTE,CARR. BERNAL CADEREYTA KM. 1,UNIPOLAR,12.9,7.32,-100.219838,20.56345097,"$20,476.18",,,RENTABLE,,
,QUERETARO,EL MARQUES,13139,SUR,AUTOPISTA QUERETARO - MEXICO KM. 190 + 100,UNIPOLAR,12.9,7.32,-100.34367,20.58340939,"$20,476.18",,,RENTABLE,,
,QUERETARO,EL MARQUES,13140,NORTE,AUTOPISTA QUERETARO - MEXICO KM. 190 + 100,UNIPOLAR,12.9,7.32,-100.34367,20.58340939,"$21,553.88",,,RENTABLE,,
,QUERETARO,EL MARQUES,13154,NORTE,AUTOPISTA MEXICO QUERETARO KM. 201,UNIPOLAR,12.9,7.32,-100.2861141,20.57171608,"$20,476.18",,,RENTABLE,,
,QUERETARO,EL MARQUES,13155,SUR,AUTOPISTA MEXICO QUERETARO KM. 201,UNIPOLAR,12.9,7.32,-100.2861141,20.57171608,"$21,553.88",,,RENTABLE,,
,QUERETARO,EL MARQUES,13163,NORTE,AUTOPISTA MEXICO QUERETARO (CALLE EL CARMEN) KM. 196.4,UNIPOLAR,12.9,7.32,-100.2626838,20.57219159,"$20,476.18",,,RENTABLE,,
,QUERETARO,EL MARQUES,13164,SUR,AUTOPISTA MEXICO QUERETARO (CALLE EL CARMEN) KM. 196.4,UNIPOLAR,12.9,7.32,-100.2626838,20.57219159,"$20,476.18",,,RENTABLE,,
,QUERETARO,EL MARQUES,13174,SUR,AUTOPISTA MEXICO-QUERETARO KM. 194+500,UNIPOLAR,12.3,7.8,-100.247366,20.5663344,"$36,225.00",,,RENTABLE,,
,QUERETARO,EL MARQUES,13175,NORTE,AUTOPISTA MEXICO-QUERETARO KM. 194+500,UNIPOLAR,12.3,7.8,-100.247366,20.5663344,"$30,112.03",,,RENTABLE,,
,QUERETARO,EL MARQUEZ,13159,SUR,AUTOPISTA MEXICO QUERETARO KM. 190,UNIPOLAR,12.9,7.32,-100.2074733,20.54760595,"$38,036.25",,,RENTABLE,,
,QUERETARO,EL MARQUEZ,13160,NORTE,AUTOPISTA MEXICO QUERETARO KM. 190,UNIPOLAR,12.9,7.32,-100.2074733,20.54760595,"$20,476.18",,,RENTABLE,,
,QUERETARO,FELIX OSORES,13033,ORIENTE,DE LA LUZ 305,UNIPOLAR,12.9,7.32,-100.4496436,20.63758456,"$20,476.18",,,RENTABLE,,
,QUERETARO,FELIX OSORES,13034,PONIENTE,DE LA LUZ 305,UNIPOLAR,12.9,7.32,-100.4496436,20.63758456,"$20,476.18",,,RENTABLE,,
,QUERETARO,POLOTITLAN,2558,NORTE,AUTOPISTA MEXICO QUERETARO  KM. 140,UNIPOLAR,12.9,9,-99.85886647,20.26519601,"$52,696.05",,,RENTABLE,,
,QUERETARO,POLOTITLAN,2559,SUR,AUTOPISTA MEXICO QUERETARO  KM. 140,UNIPOLAR,12.9,9,-99.85886647,20.26519601,"$36,134.44",,,RENTABLE,,
,QUERETARO,SAN JUAN DEL RIO,13013,SUR,AUTOPISTA MEXICO QUERETARO 152.1,UNIPOLAR,12.9,9,-99.93691941,20.33136435,"$21,553.88",,,RENTABLE,,
,QUERETARO,SAN JUAN DEL RIO,13014,NORTE,AUTOPISTA MEXICO QUERETARO 152.1,UNIPOLAR,12.9,9,-99.93691941,20.33136435,"$21,553.88",,,RENTABLE,,
,QUERETARO,SANTA ROSA JAUREGUI,13055,NORTE,INDEPENDENCIA 102  SANTA ROSA JAUREGUI,UNIPOLAR,12,4,-100.445445,20.7481849,"$18,067.22",,,RENTABLE,,
,QUERETARO,SANTA ROSA JAUREGUI,13056,SUR,INDEPENDENCIA 102  SANTA ROSA JAUREGUI,UNIPOLAR,12,4,-100.445445,20.7481849,"$18,067.22",,,RENTABLE,,
,QUERETARO,QUERETARO,13171-D05.01,SUR,PASEO DE LA REPUBLICA KM 12 + 900,UNIPOLAR,10.8,7.2,-100.4336843,20.67408694,"$57,054.38",,,RENTABLE,,
,QUERETARO,QUERETARO,13171-D05.02,SUR,PASEO DE LA REPUBLICA KM 12 + 900,UNIPOLAR,10.8,7.2,-100.4336843,20.67408694,"$57,054.38",,,RENTABLE,,
,QUERETARO,QUERETARO,13171-D05.03,SUR,PASEO DE LA REPUBLICA KM 12 + 900,UNIPOLAR,10.8,7.2,-100.4336843,20.67408694,"$57,054.38",,,RENTABLE,,
,QUERETARO,QUERETARO,13171-D05.04,SUR,PASEO DE LA REPUBLICA KM 12 + 900,UNIPOLAR,10.8,7.2,-100.4336843,20.67408694,"$57,054.38",,,RENTABLE,,
,QUERETARO,QUERETARO,13171-D05.05,SUR,PASEO DE LA REPUBLICA KM 12 + 900,UNIPOLAR,10.8,7.2,-100.4336843,20.67408694,"$57,054.38",,,RENTABLE,,
,QUERETARO,QUERETARO,13171-D05.06,SUR,PASEO DE LA REPUBLICA KM 12 + 900,UNIPOLAR,10.8,7.2,-100.4336843,20.67408694,"$57,054.38",,,RENTABLE,,
,QUERETARO,QUERETARO,13171-D05.07,SUR,PASEO DE LA REPUBLICA KM 12 + 900,UNIPOLAR,10.8,7.2,-100.4336843,20.67408694,"$57,054.38",,,RENTABLE,,
,QUERETARO,QUERETARO,13171-D05.08,SUR,PASEO DE LA REPUBLICA KM 12 + 900,UNIPOLAR,10.8,7.2,-100.4336843,20.67408694,"$57,054.38",,,RENTABLE,,
,QUERETARO,QUERETARO,13171-D05.09,SUR,PASEO DE LA REPUBLICA KM 12 + 900,UNIPOLAR,10.8,7.2,-100.4336843,20.67408694,"$57,054.38",,,RENTABLE,,
,QUERETARO,QUERETARO,13022,NORTE,BLVD. BERNARDO QUINTANA 199,UNIPOLAR,12.9,7.32,-100.3647345,20.58997952,"$29,161.13",,,RENTABLE,,
,QUERETARO,QUERETARO,13023,ORIENTE,PASEO CONSTITUYENTES 100,UNIPOLAR,12.9,7.32,-100.4135387,20.56288394,"$29,161.13",,,RENTABLE,,
,QUERETARO,QUERETARO,13024,PONIENTE,PASEO CONSTITUYENTES 100,UNIPOLAR,12.9,7.32,-100.4135387,20.56288394,"$29,161.13",,,RENTABLE,,
,QUERETARO,QUERETARO,13035,PONIENTE,ACCESO IV 6,UNIPOLAR,12.9,7.32,-100.4330427,20.64282189,"$21,553.88",,,RENTABLE,,
,QUERETARO,QUERETARO,13036,ORIENTE,ACCESO IV 6,UNIPOLAR,12.9,7.32,-100.4330427,20.64282189,"$21,553.88",,,RENTABLE,,
,QUERETARO,QUERETARO,13039,SUR,CARR. QUERETARO - SAN LUIS KM. 11,UNIPOLAR,12.9,7.32,-100.4342239,20.67064088,"$29,161.13",,,RENTABLE,,
,QUERETARO,QUERETARO,13040,NORTE,CARR. QUERETARO - SAN LUIS KM. 11,UNIPOLAR,12.9,7.32,-100.4342239,20.67064088,"$38,036.25",,,RENTABLE,,
,QUERETARO,QUERETARO,13047,SUR,5 DE FEBRERO ESQ. BLVD. QUINTANA  CAMINO REAL  186,UNIPOLAR,12.9,7.32,-100.4212251,20.61896187,"$31,696.88",,,RENTABLE,,
,QUERETARO,QUERETARO,13048,NORTE,5 DE FEBRERO ESQ. BLVD. QUINTANA  CAMINO REAL  186,UNIPOLAR,12.9,7.32,-100.4212251,20.61896187,"$16,482.38",,,RENTABLE,,
,QUERETARO,QUERETARO,13049,SUR,5 DE FEBRERO NORTE 275,UNIPOLAR,12,8,-100.4209633,20.61499489,"$38,036.25",,,RENTABLE,,
,QUERETARO,QUERETARO,13050,NORTE,5 DE FEBRERO NORTE 275,UNIPOLAR,12,8,-100.4209633,20.61499489,"$38,036.25",,,RENTABLE,,
,QUERETARO,QUERETARO,13053,SUR,5 DE FEBRERO ESQ. TLACOTE  CTO. SAN IGNACIO LOTE 2 Y 3,UNIPOLAR,12.9,7.32,-100.4135236,20.58875173,"$38,036.25",,,RENTABLE,,
,QUERETARO,QUERETARO,13054,NORTE,5 DE FEBRERO ESQ. TLACOTE  CTO. SAN IGNACIO LOTE 2 Y 3,UNIPOLAR,12.9,7.32,-100.4135236,20.58875173,"$29,161.13",,,RENTABLE,,
,QUERETARO,QUERETARO,13059,SUR,REVOLUCION 424,UNIPOLAR,12.9,7.32,-100.4336149,20.60767881,"$20,476.18",,,RENTABLE,,
,QUERETARO,QUERETARO,13060,NORTE,REVOLUCION 424,UNIPOLAR,12.9,7.32,-100.4336149,20.60767881,"$20,476.18",,,RENTABLE,,
,QUERETARO,QUERETARO,13064,NORTE,5 DE FEBRERO 105,UNIPOLAR,12.9,7.32,-100.4075434,20.58174128,"$38,036.25",,,RENTABLE,,
,QUERETARO,QUERETARO,13065,SUR,5 DE FEBRERO 10,UNIPOLAR,8,11,-100.4006985,20.57537187,"$29,161.13",,,RENTABLE,,
,QUERETARO,QUERETARO,13066,NORTE,5 DE FEBRERO 10,UNIPOLAR,8,11,-100.4006985,20.57537187,"$29,161.13",,,RENTABLE,,
,QUERETARO,QUERETARO,13067,SUR,PROL. CORREGIDORA NTE. 1086,UNIPOLAR,12.9,7.32,-100.3899108,20.6196581,"$21,553.88",,,RENTABLE,,
,QUERETARO,QUERETARO,13068,NORTE,PROL. CORREGIDORA NTE. 1086,UNIPOLAR,12.9,7.32,-100.3899108,20.6196581,"$21,553.88",,,RENTABLE,,
,QUERETARO,QUERETARO,13077,NORTE,LIBRAMIENTO SUR PONIENTE  FRAC. FUENTES DEL CIMATEARIO LT. 14 MZ. 267 sobre LIBRAMIENTO SUR-PONIENTE NO. 570,UNIPOLAR,12.9,7.32,-100.3753912,20.54827158,"$20,476.18",,,RENTABLE,,
,QUERETARO,QUERETARO,13078,SUR,LIBRAMIENTO SUR PONIENTE  FRAC. FUENTES DEL CIMATEARIO LT. 14 MZ. 267 sobre LIBRAMIENTO SUR-PONIENTE NO. 570,UNIPOLAR,12.9,7.32,-100.3753912,20.54827158,"$20,476.18",,,RENTABLE,,
,QUERETARO,QUERETARO,13086,SUR,LUIS VEGA Y MONROY 204,UNIPOLAR,12,4,-100.3824193,20.57577702,"$18,067.22",,,RENTABLE,,
,QUERETARO,QUERETARO,13087,NORTE,LUIS VEGA Y MONROY 204,UNIPOLAR,12,4,-100.3824193,20.57577702,"$18,067.22",,,RENTABLE,,
,QUERETARO,QUERETARO,13090,ORIENTE,EPIGMENIO GONZALEZ 310,UNIPOLAR,12.9,7.32,-100.4086738,20.60592395,"$20,476.18",,,RENTABLE,,
,QUERETARO,QUERETARO,13091,PONIENTE,EPIGMENIO GONZALEZ 310,UNIPOLAR,12.9,7.32,-100.4086738,20.60592395,"$20,476.18",,,RENTABLE,,
,QUERETARO,QUERETARO,13092,PONIENTE,CONSTITUYENTES ORIENTE 125,UNIPOLAR,12.9,7.32,-100.3653328,20.58874197,"$29,161.13",,,RENTABLE,,
,QUERETARO,QUERETARO,13093,ORIENTE,CONSTITUYENTES ORIENTE 125,UNIPOLAR,12.9,7.32,-100.3653328,20.58874197,"$33,143.00",,,RENTABLE,,
,QUERETARO,QUERETARO,13096,SUR,SAN DIEGO DE LOS PADRES 402 - B,UNIPOLAR,12,4,-100.3827923,20.56827781,"$18,067.22",,,RENTABLE,,
,QUERETARO,QUERETARO,13097,NORTE,SAN DIEGO DE LOS PADRES 402 - B,UNIPOLAR,12,4,-100.3827923,20.56827781,"$18,067.22",,,RENTABLE,,
,QUERETARO,QUERETARO,13113,SUR,5 DE FEBRERO 1316-G,UNIPOLAR,12.37,4,-100.417139,20.6037693,"$29,161.13",,,RENTABLE,,
,QUERETARO,QUERETARO,13114,NORTE,5 DE FEBRERO 1316-G,UNIPOLAR,12.37,4,-100.417139,20.6037693,"$29,161.13",,,RENTABLE,,
,QUERETARO,QUERETARO,13123,ORIENTE,CONSTITUYENTES 124,UNIPOLAR,12.9,7.32,-100.406561,20.5721737,"$31,696.88",,,RENTABLE,,
,QUERETARO,QUERETARO,13124,PONIENTE,CONSTITUYENTES 124,UNIPOLAR,12.9,7.32,-100.406561,20.5721737,"$31,696.88",,,RENTABLE,,
,QUERETARO,QUERETARO,13125,ORIENTE,CONSTITUYENTES 101,UNIPOLAR,12.9,7.32,-100.3969311,20.58215109,"$21,553.88",,,RENTABLE,,
,QUERETARO,QUERETARO,13126,PONIENTE,CONSTITUYENTES 101,UNIPOLAR,12.9,7.32,-100.3969311,20.58215109,"$31,696.88",,,RENTABLE,,
,QUERETARO,QUERETARO,13129,SUR,5 DE FEBRERO 9100,UNIPOLAR,12.9,7.32,-100.4321725,20.65098002,"$29,161.13",,,RENTABLE,,
,QUERETARO,QUERETARO,13130,NORTE,5 DE FEBRERO 9100,UNIPOLAR,12.9,7.32,-100.4321725,20.65098002,"$29,161.13",,,RENTABLE,,
,QUERETARO,QUERETARO,13132,PONIENTE,CONSTITUYENTES 71,UNIPOLAR,12.9,7.32,-100.3779112,20.58682678,"$21,553.88",,,RENTABLE,,
,QUERETARO,QUERETARO,13133,ORIENTE,CONSTITUYENTES 102,UNIPOLAR,12.9,7.32,-100.3729159,20.58713494,"$21,553.88",,,RENTABLE,,
,QUERETARO,QUERETARO,13134,PONIENTE,CONSTITUYENTES 102,UNIPOLAR,12.9,7.32,-100.3729159,20.58713494,"$21,553.88",,,RENTABLE,,
,QUERETARO,QUERETARO,13137,ORIENTE,CONSTITUYENTES 43-A,UNIPOLAR,12,8,-100.3924983,20.58425634,"$20,476.18",,,RENTABLE,,
,QUERETARO,QUERETARO,13138,PONIENTE,CONSTITUYENTES 43-A,UNIPOLAR,12,8,-100.3924983,20.58425634,"$31,696.88",,,RENTABLE,,
,QUERETARO,QUERETARO,13141,SUR,BLVD. BERNARDO QUINTANA 227,UNIPOLAR,8,5.5,-100.3627216,20.58937279,"$27,703.07",,,RENTABLE,,
,QUERETARO,QUERETARO,13142,SUR,UNIVERSITARIOS ESQ. CALLE ACUEDUCTO 502,UNIPOLAR,10.1,6.4,-100.446523,20.71179224,"$29,161.13",,,RENTABLE,,
,QUERETARO,QUERETARO,13143,NORTE,UNIVERSITARIOS ESQ. CALLE ACUEDUCTO 502,UNIPOLAR,10.1,6.4,-100.446523,20.71179224,"$29,161.13",,,RENTABLE,,
,QUERETARO,QUERETARO,13156,NORTE,AUTOPISTA MEXICO QUERETARO KM 208.5,UNIPOLAR,12,6,-100.3695068,20.58002026,"$21,553.88",,,RENTABLE,,
,QUERETARO,QUERETARO,13157,SUR,AUTOPISTA MEXICO QUERETARO KM 208.5,UNIPOLAR,12,6,-100.3695068,20.58002026,"$21,553.88",,,RENTABLE,,
,QUERETARO,QUERETARO,13169,NORTE,PROL. BERNARDO QUINTANA 2568,UNIPOLAR,12.9,7.32,-100.4574525,20.6211099,"$20,476.18",,,RENTABLE,,
,QUERETARO,QUERETARO,13170,SUR,PROL. BERNARDO QUINTANA 2568,UNIPOLAR,12.9,7.32,-100.4574525,20.6211099,"$21,553.88",,,RENTABLE,,
,QUERETARO,QUERETARO,13172,NORTE,PASEO DE LA REPUBLICA KM 10.2,UNIPOLAR,12.9,7.32,-100.4319557,20.6581133,"$24,089.63",,,RENTABLE,,
,QUERETARO,QUERETARO,13173,SUR,PASEO DE LA REPUBLICA KM 10.2,UNIPOLAR,12.9,7.32,-100.4319557,20.6581133,"$38,036.25",,,RENTABLE,,
,QUERETARO,QUERETARO,13094,SUR,AUTOPISTA MEXICO QUERETARO 220,UNIPOLAR,12.9,7.32,-100.3872944,20.57655,"$23,455.69",,,RENTABLE,,
,QUERETARO,QUERETARO,13095,NORTE,AUTOPISTA MEXICO QUERETARO 220,UNIPOLAR,12.9,7.32,-100.387359,20.576566,"$23,455.69",,,RENTABLE,,
,QUERETARO,QUERETARO,13037,SUR,PASEO DE LA REPUBLICA KM. 11,UNIPOLAR,12.9,7.32,-100.4334048,20.67148049,"$38,036.25",,,RENTABLE,,
,QUERETARO,QUERETARO,13038,SUR,PASEO DE LA REPUBLICA KM. 11,UNIPOLAR,12.9,7.32,-100.4334048,20.67148049,"$36,134.44",,,RENTABLE,,
,QUERETARO,QUERETARO,13046,NORTE,5 DE FEBRERO 1716,UNIPOLAR,12.9,7.32,-100.4261044,20.63156646,"$38,036.25",,,RENTABLE,,
,QUERETARO,QUERETARO,13136,NORTE,PASEO DE LA REPUBLICA KM 12 + 900,UNIPOLAR,12.9,7.32,-100.4336843,20.67408693,"$38,036.25",,,RENTABLE,,
,QUERETARO,QUERETARO,13045,SUR,5 DE FEBRERO 1716,UNIPOLAR,12.9,7.32,-100.4261044,20.63156646,"$38,036.25",,,RENTABLE,,
,QUERETARO,QUERETARO,13021,SUR,BLVD. BERNARDO QUINTANA 199,UNIPOLAR,12.9,7.32,-100.3647345,20.58997952,"$54,337.50",,,RENTABLE,,
,QUERETARO,QUERETARO,13131,ORIENTE,CONSTITUYENTES 71,UNIPOLAR,12.9,7.32,-100.3779112,20.58682678,"$31,696.88",,,RENTABLE,,
,QUERETARO,QUERETARO,13063,SUR,5 DE FEBRERO 105,UNIPOLAR,12.9,7.32,-100.4075434,20.58174128,"$38,036.25",,,RENTABLE,,
,GUANAJUATO,CELAYA,16501,NORTE,SALIDA A SALAMANCA 1023 (ANTES KM. 1.00),AZOTEA,12.9,7.32,-100.8457558,20.51906285,"$17,750.25",,,RENTABLE,,
,GUANAJUATO,CELAYA,16502,SUR,SALIDA A SALAMANCA 1023 (ANTES KM. 1.00),AZOTEA,12.9,7.32,-100.8457558,20.51906285,"$17,750.25",,,RENTABLE,,
,GUANAJUATO,IRAPUATO,12501,NORTE,CARRETERA IRAPUATO SALAMANCA LIBRAMIENTO KM. 3 + 100,UNIPOLAR,12.6,5.1,-101.2984652,20.6708931,"$17,750.25",,,RENTABLE,,
,GUANAJUATO,IRAPUATO,12502,SUR,CARRETERA IRAPUATO SALAMANCA LIBRAMIENTO KM. 3 + 100,UNIPOLAR,12.6,5.1,-101.2984652,20.6708931,"$17,750.25",,,RENTABLE,,
,GUANAJUATO,LEON,11005,NORTE,BLVD. JUAN JOSE TORRES LANDA #3535,UNIPOLAR,12.9,7.32,-101.737047,21.0897916,"$21,553.88",,,RENTABLE,,
,GUANAJUATO,LEON,11006,SUR,BLVD. JUAN JOSE TORRES LANDA #3535,UNIPOLAR,12.9,7.32,-101.737047,21.0897916,"$21,553.88",,,RENTABLE,,
,GUANAJUATO,LEON,11009,NORTE,CARRETERA LEON - SILAO ESQ.  OLMO L. 7 Y 8 MZ. 6,UNIPOLAR,12.9,7.32,-101.5489465,21.03212209,"$21,553.88",,,RENTABLE,,
,GUANAJUATO,LEON,11010,SUR,CARRETERA LEON - SILAO ESQ.  OLMO L. 7 Y 8 MZ. 6,UNIPOLAR,12.9,7.32,-101.5489465,21.03212209,"$21,553.88",,,RENTABLE,,
,GUANAJUATO,LEON,11023,ORIENTE,BLVD. A. LOPEZ MATEOS 2520,AZOTEA,12.9,7.32,-101.6843131,21.15195526,"$21,553.88",,,RENTABLE,,
,GUANAJUATO,LEON,11024,NORTE,BLVD. HIDALGO ESQ. BLVD. JOSE MARIA MORELOS S/N,UNIPOLAR,12.9,7.32,-101.6638712,21.17377258,"$21,553.88",,,RENTABLE,,
,GUANAJUATO,LEON,11025,SUR,BLVD. HIDALGO ESQ. BLVD. JOSE MARIA MORELOS S/N,UNIPOLAR,12.9,7.32,-101.6638712,21.17377258,"$21,553.88",,,RENTABLE,,
,GUANAJUATO,LEON,11027,SUR,BLVD. PASEO DE LOS INSURGENTES ESQ. CALLE ELENA S/N,AUTOSOPORTADO,12.9,7.32,-101.6834072,21.14115033,"$21,553.88",,,RENTABLE,,
,GUANAJUATO,LEON,11030,NORTE,BLVD. HIDALGO 103,UNIPOLAR,12.9,7.32,-101.6780425,21.13371724,"$30,187.50",,,RENTABLE,,
,GUANAJUATO,LEON,11031,SUR,BLVD. HIDALGO 103,UNIPOLAR,12.9,7.32,-101.6780425,21.13371724,"$42,262.50",,,RENTABLE,,
,GUANAJUATO,LEON,11037,SUR,PASEO DE LOS INSURGENTES 508,AZOTEA,12.9,7.32,-101.693097,21.14387997,"$21,553.88",,,RENTABLE,,
,GUANAJUATO,LEON,11038,SUR,BLVD. MANUEL DE AUSTRI 904,AZOTEA,12.9,7.32,-101.7033042,21.13169662,"$21,553.88",,,RENTABLE,,
,GUANAJUATO,LEON,11043,NORTE,BLVD. PASEO DE LOS INSURGENTES ESQ. CALLE ELENA S/N,AUTOSOPORTADO,12.9,7.32,-101.6834072,21.14115033,"$12,678.75",,,RENTABLE,,
,GUANAJUATO,LEON,11044,ORIENTE,BLVD. CAMPESTRE 2740  COL. CAÑADA DEL REFUGIO,UNIPOLAR,12.9,7.32,-101.7258219,21.1526107,"$21,553.88",,,RENTABLE,,
,GUANAJUATO,LEON,11046,ORIENTE,BLVD. CAMPESTRE 2414  COLONIA BOSQUES DEL REFUGIO,UNIPOLAR,12.9,7.32,-101.7247879,21.1524929,"$21,553.88",,,RENTABLE,,
,GUANAJUATO,LEON,11047,PONIENTE,BLVD. CAMPESTRE 2414  COLONIA BOSQUES DEL REFUGIO,UNIPOLAR,12.9,7.32,-101.7247879,21.1524929,"$21,553.88",,,RENTABLE,,
,GUANAJUATO,LEON,11045,PONIENTE,BLVD. CAMPESTRE 2740  COL. CAÑADA DEL REFUGIO,UNIPOLAR,12.9,7.32,-101.7258219,21.1526107,"$21,553.88",,,RENTABLE,,
,GUANAJUATO,LEON,05312-E01,SUR,BLVD. SAN JUAN BOSCO #3050,UNIPOLAR,12.9,7.32,-101.7278151,21.14801435,"$21,553.88",,,RENTABLE,,
,GUANAJUATO,LEON,05312-E02,NORTE,BLVD. SAN JUAN BOSCO #3050,UNIPOLAR,12.9,7.32,-101.7278151,21.14801435,"$21,553.88",,,RENTABLE,,
,GUANAJUATO,SAN MIGUEL DE ALLENDE,12005,NORTE,BLVD. DE LA CONSPIRACION S/N,PUENTE PEATONAL,17.5,2.5,-100.7297403,20.90427263,"$19,018.13",,,RENTABLE,,
,GUANAJUATO,SAN MIGUEL DE ALLENDE,12006,NORTE,BLVD. DE LA CONSPIRACION S/N,PUENTE PEATONAL,17.5,2.5,-100.7297403,20.90427263,"$19,018.13",,,RENTABLE,,
,GUANAJUATO,SAN MIGUEL DE ALLENDE,12007,SUR,BLVD. DE LA CONSPIRACION S/N,PUENTE PEATONAL,18,2.5,-100.7297403,20.90427263,"$19,018.13",,,RENTABLE,,
,GUANAJUATO,SAN MIGUEL DE ALLENDE,12008,SUR,BLVD. DE LA CONSPIRACION S/N,PUENTE PEATONAL,18,2.5,-100.7297403,20.90427263,"$30,187.50",,,RENTABLE,,
,GUANAJUATO,SAN MIGUEL DE ALLENDE,12009,PONIENTE,LIBRAMIENTO MANUEL ZAVALA NUEVO PANTOJA  ,PUENTE PEATONAL,23,2.5,-100.7485518,20.89579751,"$19,018.13",,,RENTABLE,,
,GUANAJUATO,SAN MIGUEL DE ALLENDE,12010,ORIENTE,LIBRAMIENTO MANUEL ZAVALA NUEVO PANTOJA  ,PUENTE PEATONAL,25,2.5,-100.7485518,20.89579751,"$36,225.00",,,RENTABLE,,
,GUANAJUATO,SAN MIGUEL DE ALLENDE,12011,NORTE,BLVD. DE LA CONSPIRACION INFONAVIT LA LUZ ,PUENTE PEATONAL,21,2.5,-100.7231289,20.90533765,"$19,018.13",,,RENTABLE,,
,GUANAJUATO,SAN MIGUEL DE ALLENDE,12012,NORTE,BLVD. DE LA CONSPIRACION INFONAVIT LA LUZ ,PUENTE PEATONAL,21,2.5,-100.7231289,20.90533765,"$19,018.13",,,RENTABLE,,
,GUANAJUATO,SAN MIGUEL DE ALLENDE,12013,SUR,BLVD. DE LA CONSPIRACION INFONAVIT LA LUZ ,PUENTE PEATONAL,21,2.5,-100.7231289,20.90533765,"$19,018.13",,,RENTABLE,,
,GUANAJUATO,SAN MIGUEL DE ALLENDE,12014,SUR,BLVD. DE LA CONSPIRACION INFONAVIT LA LUZ ,PUENTE PEATONAL,21,2.5,-100.7231289,20.90533765,"$19,018.13",,,RENTABLE,,
,GUANAJUATO,SAN MIGUEL DE ALLENDE,12015,PONIENTE,AGUSTIN GONZALEZ ,PUENTE PEATONAL,22,2.5,-100.8534358,20.86015645,"$19,018.13",,,RENTABLE,,
,GUANAJUATO,SAN MIGUEL DE ALLENDE,12016,ORIENTE,AGUSTIN GONZALEZ ,PUENTE PEATONAL,22,2.5,-100.8534358,20.86015645,"$19,018.13",,,RENTABLE,,
,GUANAJUATO,SAN MIGUEL DE ALLENDE,12017,PONIENTE,LIB. MANUEL ZAVALA A 100 MTS. CALZ. DE LA ESTACION ,PUENTE PEATONAL,25,2.4,-100.7631553,20.91801151,"$30,187.50",,,RENTABLE,,
,GUANAJUATO,SAN MIGUEL DE ALLENDE,12018,ORIENTE,LIB. MANUEL ZAVALA A 100 MTS. CALZ. DE LA ESTACION ,PUENTE PEATONAL,25,2.4,-100.7631553,20.91801151,"$19,018.13",,,RENTABLE,,
,GUANAJUATO,SAN MIGUEL DE ALLENDE,12019,PONIENTE,LIBRAMIENTO MANUEL ZAVALA INF. MALANQUIN ,PUENTE PEATONAL,25,2.4,-100.7587635,20.9094456,"$19,018.13",,,RENTABLE,,
,GUANAJUATO,SAN MIGUEL DE ALLENDE,12020,ORIENTE,LIBRAMIENTO MANUEL ZAVALA INF. MALANQUIN ,PUENTE PEATONAL,25,2.4,-100.7587635,20.9094456,"$19,018.13",,,RENTABLE,,
,GUANAJUATO,SAN MIGUEL DE ALLENDE,12021,ORIENTE,LIBRAMIENTO MANUEL ZAVALA INF. MALANQUIN ,PUENTE PEATONAL,17.1,2.4,-100.7587635,20.9094456,"$19,018.13",,,RENTABLE,,
,GUANAJUATO,SAN MIGUEL DE ALLENDE,12022,Norte,LIBRAMIENTO MANUEL ZAVALA INF. MALANQUIN ,PUENTE PEATONAL,17.1,2.4,-100.7587635,20.9094456,"$19,018.13",,,RENTABLE,,
,GUANAJUATO,SAN MIGUEL DE ALLENDE,12031,NORTE,PUENTE LIB. MANUEL ZAVALA (VALLE DEL MAIZ) ,PUENTE PEATONAL,19.5,2.5,-100.7363507,20.90411117,"$19,018.13",,,RENTABLE,,
,GUANAJUATO,SAN MIGUEL DE ALLENDE,12032,SUR,PUENTE LIB. MANUEL ZAVALA (VALLE DEL MAIZ) ,PUENTE PEATONAL,20.5,2.5,-100.7363507,20.90411117,"$19,018.13",,,RENTABLE,,
,GUANAJUATO,SAN MIGUEL DE ALLENDE,12035,PONIENTE,LIBRAMIENTO MANUEL ZAVALA PUENTE ALLENDE ,PUENTE PEATONAL,27,2.5,-100.7453791,20.8991674,"$19,018.13",,,RENTABLE,,
,GUANAJUATO,SAN MIGUEL DE ALLENDE,12036,ORIENTE,LIBRAMIENTO MANUEL ZAVALA PUENTE ALLENDE ,PUENTE PEATONAL,28,2.5,-100.7453791,20.8991674,"$19,018.13",,,RENTABLE,,
,GUANAJUATO,SILAO GUANAJUATO,11001,NORTE,CARRETERA SILAO-GUANAJUATO EL REFUGIO DE LOS SAUCES 3,UNIPOLAR,12.9,7.32,-101.5286889,21.0165897,"$21,553.88",,,RENTABLE,,
,GUANAJUATO,SILAO GUANAJUATO,11002,SUR,CARRETERA SILAO-GUANAJUATO EL REFUGIO DE LOS SAUCES 3,UNIPOLAR,12.9,7.32,-101.5286889,21.0165897,"$21,553.88",,,RENTABLE,,
,GUANAJUATO,SILAO GUANAJUATO,11007,NORTE,CARRETERA LEON - SILAO EL EJIDO DE COLONIAS NUEVO MEXICO S/N,UNIPOLAR,12.9,7.32,-101.4754257,20.9786157,"$21,553.88",,,RENTABLE,,
,GUANAJUATO,SILAO GUANAJUATO,11008,SUR,CARRETERA LEON - SILAO EL EJIDO DE COLONIAS NUEVO MEXICO S/N,UNIPOLAR,12.9,7.32,-101.4754257,20.9786157,"$21,553.88",,,RENTABLE,,
,GUANAJUATO,VILLAGRAM,16503,NORTE,CARRETERA SALAMANCA - CELAYA 301,AZOTEA,12.9,7.32,-101.0648335,20.52166821,"$17,750.25",,,RENTABLE,,
,GUANAJUATO,VILLAGRAM,16504,SUR,CARRETERA SALAMANCA - CELAYA 301,AZOTEA,12.9,7.32,-101.0648335,20.52166821,"$17,750.25",,,RENTABLE,,
,SAN LUIS POTOSI,SAN LUIS POTOSI,18001,NORTE,SALVADOR NAVA MARTINEZ 3204,UNIPOLAR,12.9,7.32,-101.0053353,22.1403299,"$22,821.75",,,RENTABLE,,
,SAN LUIS POTOSI,SAN LUIS POTOSI,18002,SUR,SALVADOR NAVA MARTINEZ 3204,UNIPOLAR,12.9,7.32,-101.0053353,22.1403299,"$22,821.75",,,RENTABLE,,
,SAN LUIS POTOSI,SAN LUIS POTOSI,18006,NORTE,BLVD. ANTONIO ROCHA CORDERO 135,UNIPOLAR,12.9,7.32,-100.9599787,22.1040834,"$22,821.75",,,RENTABLE,,
,SAN LUIS POTOSI,SAN LUIS POTOSI,18007,SUR,BLVD. ANTONIO ROCHA CORDERO 135,UNIPOLAR,12.9,7.32,-100.9599787,22.1040834,"$22,821.75",,,RENTABLE,,
,SAN LUIS POTOSI,SAN LUIS POTOSI,18011,PONIENTE,SALVADOR NAVA ESQ. SIERRA DE SAN MIGUELITO  165,UNIPOLAR,12.9,7.32,-101.0196416,22.1408123,"$22,821.75",,,RENTABLE,,
,SAN LUIS POTOSI,SAN LUIS POTOSI,18012,ORIENTE,SALVADOR NAVA ESQ. SIERRA DE SAN MIGUELITO  165,UNIPOLAR,12.9,7.32,-101.0196416,22.1408123,"$26,565.00",,,RENTABLE,,
,SAN LUIS POTOSI,SAN LUIS POTOSI,18027,NORTE,EUGENIO GARZA SADA S/N,UNIPOLAR,12.9,7.32,-101.0361311,22.1276982,"$29,161.13",,,RENTABLE,,
,SAN LUIS POTOSI,SAN LUIS POTOSI,18028,SUR,EUGENIO GARZA SADA S/N,UNIPOLAR,12.9,7.32,-101.0361311,22.1276982,"$29,161.13",,,RENTABLE,,
,SAN LUIS POTOSI,SAN LUIS POTOSI,18031,PONIENTE,HIMNO NACIONAL 4225,AZOTEA,12.9,7.32,-100.9813391,22.1358709,"$22,821.75",,,RENTABLE,,
,SAN LUIS POTOSI,SAN LUIS POTOSI,18032,ORIENTE,HIMNO NACIONAL 4225,AZOTEA,12.9,7.32,-100.9813391,22.1358709,"$22,821.75",,,RENTABLE,,
,SAN LUIS POTOSI,SAN LUIS POTOSI,18048,PONIENTE,DE LA PAZ 230,AZOTEA,12.9,7.32,-100.976532,22.1678062,"$21,735.00",,,RENTABLE,,
,SAN LUIS POTOSI,SAN LUIS POTOSI,18049,ORIENTE,DE LA PAZ 230,AZOTEA,12.9,7.32,-100.976532,22.1678062,"$21,735.00",,,RENTABLE,,
,CULIACAN,CULIACAN,13500,NORTE,CALLEJON SAGITARIO 1808,UNIPOLAR,12.9,7.32,-107.3754209,24.82701115,"$31,696.88",,,RENTABLE,,
,CULIACAN,CULIACAN,13501,SUR,CALLEJON SAGITARIO 1808,UNIPOLAR,12.9,7.32,-107.3754209,24.82701115,"$31,696.88",,,RENTABLE,,
,CULIACAN,CULIACAN,13525,PONIENTE,BLVD. ENRIQUE CABRERA S/N (UNIPOLAR 1),UNIPOLAR,12.9,7.32,-107.4044817,24.83217689,"$31,696.88",,,RENTABLE,,
,CULIACAN,CULIACAN,13526,ORIENTE,BLVD. ENRIQUE CABRERA S/N (UNIPOLAR 1),UNIPOLAR,12.9,7.32,-107.4044817,24.83217689,"$31,696.88",,,RENTABLE,,
,CULIACAN,CULIACAN,13527,PONIENTE,BLVD. ENRIQUE CABRERA S/N (UNIPOLAR 2),UNIPOLAR,12.9,7.32,-107.4054767,24.83193068,"$31,696.88",,,RENTABLE,,
,CULIACAN,CULIACAN,13528,ORIENTE,BLVD. ENRIQUE CABRERA S/N (UNIPOLAR 2),UNIPOLAR,12.9,7.32,-107.4054767,24.83193068,"$31,696.88",,,RENTABLE,,
,CULIACAN,CULIACAN,13529,PONIENTE,BLVD. EMILIANO ZAPATA 3196,UNIPOLAR,12.9,7.32,-107.431528,24.78390125,"$31,696.88",,,RENTABLE,,
,CULIACAN,CULIACAN,13530,ORIENTE,BLVD. EMILIANO ZAPATA 3196,UNIPOLAR,12.9,7.32,-107.431528,24.78390125,"$31,696.88",,,RENTABLE,,
,CULIACAN,CULIACAN,13531,NORTE,BLVD. ROLANDO ARJONA ESQ. VILLAS DEL RIO ,UNIPOLAR,12.9,7.32,-107.4311942,24.8080011,"$31,696.88",,,RENTABLE,,
,CULIACAN,CULIACAN,13532,SUR,BLVD. ROLANDO ARJONA ESQ. VILLAS DEL RIO ,UNIPOLAR,12.9,7.32,-107.4311942,24.8080011,"$31,696.88",,,RENTABLE,,
,CULIACAN,CULIACAN,13533,NORTE,BLVD. EL DORADO ENTRONQUE BENITO JUAREZ ,UNIPOLAR,12.9,7.32,-107.4521157,24.74904464,"$31,696.88",,,RENTABLE,,
,CULIACAN,CULIACAN,13534,SUR,BLVD. EL DORADO ENTRONQUE BENITO JUAREZ ,UNIPOLAR,12.9,7.32,-107.4521157,24.74904464,"$31,696.88",,,RENTABLE,,
,CULIACAN,CULIACAN,13535,NORTE,BLVD. RAYMUNDO ARJONA ESQ. RIO CULIACAN ,UNIPOLAR,12.9,7.32,-107.4293792,24.80448889,"$31,696.88",,,RENTABLE,,
